{"name":"Joel Mullen","date":"2019-06-04T20:16:13.931629-07:00","comment":"I love long walks on the beach","location":{"latitude":43.51578903198242,"longitude":-79.69078826904297,"country":"CA","region":"ON"},"likes":1,"responses":5}
{"name":"David Guerra","date":"2020-02-13T20:16:13.931629-08:00","comment":"I hate skiing","location":{"latitude":52.289024353027344,"longitude":-113.83851623535156,"country":"CA","region":"AB"},"likes":2,"responses":138}
{"name":"Ava Silva","date":"2019-06-20T20:16:13.931629-07:00","comment":"I like skiing","location":{"latitude":43.93779373168945,"longitude":-78.85875701904297,"country":"CA","region":"ON"},"likes":3,"responses":1}
{"name":"Aria English","date":"2019-10-30T20:16:13.931629-07:00","comment":"I really hate camping","location":{"latitude":49.3204231262207,"longitude":-123.07259368896484,"country":"CA","region":"BC"},"likes":9,"responses":127}
{"name":"Noah Meza","date":"2019-06-01T20:16:13.931629-07:00","comment":"Maybe I like skiing","location":{"latitude":49.82247543334961,"longitude":-97.20378112792969,"country":"CA","region":"MB"},"likes":26,"responses":23}
{"name":"Chase Mayer","date":"2019-07-03T20:16:13.931629-07:00","comment":"I hate long walks on the beach","location":{"latitude":49.28131866455078,"longitude":-123.04698944091797,"country":"CA","region":"BC"},"likes":72,"responses":3}
{"name":"Samantha Eaton","date":"2019-11-30T20:16:13.931629-08:00","comment":"I hate hiking","location":{"latitude":43.64657974243164,"longitude":-79.5140380859375,"country":"CA","region":"ON"},"likes":122,"responses":4}
{"name":"Logan Decker","date":"2019-11-06T20:16:13.931629-08:00","comment":"I hate skiing","location":{"latitude":49.06138610839844,"longitude":-122.38070678710938,"country":"CA","region":"BC"},"likes":131,"responses":30}
{"name":"Luna Rose","date":"2019-10-17T20:16:13.931629-07:00","comment":"I like hiking","location":{"latitude":43.7155876159668,"longitude":-79.40045166015625,"country":"CA","region":"ON"},"likes":140,"responses":92}
{"name":"Waylon Mccullough","date":"2019-12-25T20:16:13.931629-08:00","comment":"I like camping","location":{"latitude":25.04625129699707,"longitude":55.124107360839844,"country":"AE","region":"DU"},"likes":13,"responses":4}
{"name":"Jeremiah Duran","date":"2020-02-26T20:16:13.931629-08:00","comment":"I like skiing","location":{"latitude":49.139625549316406,"longitude":-121.96318054199219,"country":"CA","region":"BC"},"likes":49,"responses":16}
{"name":"Emely Nielsen","date":"2019-12-28T20:16:13.931629-08:00","comment":"I like skiing","location":{"latitude":43.836647033691406,"longitude":-79.08992004394531,"country":"CA","region":"ON"},"likes":115,"responses":50}
{"name":"Jude Estes","date":"2019-03-29T20:16:13.931629-07:00","comment":"I like hiking","location":{"latitude":55.1694450378418,"longitude":-118.76860046386719,"country":"CA","region":"AB"},"likes":85,"responses":113}
{"name":"Emma Banks","date":"2019-03-14T20:16:13.931629-07:00","comment":"I like hiking","location":{"latitude":51.084285736083984,"longitude":-114.15680694580078,"country":"CA","region":"AB"},"likes":8,"responses":27}
{"name":"Georgia Frank","date":"2019-12-27T20:16:13.931629-08:00","comment":"I like tacos","location":{"latitude":49.8676872253418,"longitude":-97.21331787109375,"country":"CA","region":"MB"},"likes":27,"responses":3}
{"name":"Liam Lozano","date":"2019-12-20T20:16:13.931629-08:00","comment":"I like camping","location":{"latitude":43.37423324584961,"longitude":-80.31818389892578,"country":"CA","region":"ON"},"likes":13,"responses":1}
{"name":"Penelope Mack","date":"2019-06-17T20:16:13.931629-07:00","comment":"I really hate skiing","location":{"latitude":53.185638427734375,"longitude":-105.76273345947266,"country":"CA","region":"SK"},"likes":1,"responses":23}
{"name":"Austin Nolan","date":"2020-02-24T20:16:13.931629-08:00","comment":"I like camping","location":{"latitude":44.012691497802734,"longitude":-79.41307067871094,"country":"CA","region":"ON"},"likes":4,"responses":35}
{"name":"Julius Boyle","date":"2019-10-21T20:16:13.931629-07:00","comment":"I hate hiking","location":{"latitude":49.94489669799805,"longitude":-97.15769958496094,"country":"CA","region":"MB"},"likes":31,"responses":132}
{"name":"Ava West","date":"2019-12-18T20:16:13.931629-08:00","comment":"I think I might like camping","location":{"latitude":49.89574432373047,"longitude":-119.41324615478516,"country":"CA","region":"BC"},"likes":35,"responses":4}
{"name":"Matias Hunter","date":"2020-03-06T20:16:13.931629-08:00","comment":"I think I might like camping","location":{"latitude":45.413150787353516,"longitude":-75.64689636230469,"country":"CA","region":"ON"},"likes":95,"responses":13}
{"name":"Charlotte Murray","date":"2019-12-18T20:16:13.931629-08:00","comment":"I hate hiking","location":{"latitude":24.21200942993164,"longitude":55.62289047241211,"country":"AE","region":"AZ"},"likes":16,"responses":74}
{"name":"Jack Whitehead","date":"2019-09-09T20:16:13.931629-07:00","comment":"Maybe I like skiing","location":{"latitude":-34.60797882080078,"longitude":-58.37496566772461,"country":"AR","region":"C"},"likes":13,"responses":2}
{"name":"Norah Oneal","date":"2020-02-28T20:16:13.931629-08:00","comment":"I hate long walks on the beach","location":{"latitude":48.42573928833008,"longitude":-123.36539459228516,"country":"CA","region":"BC"},"likes":1,"responses":126}
{"name":"Ariella Becker","date":"2019-09-18T20:16:13.931629-07:00","comment":"I hate camping","location":{"latitude":48.42494583129883,"longitude":-123.36668395996094,"country":"CA","region":"BC"},"likes":3,"responses":1}
{"name":"Christian Mcintyre","date":"2019-04-09T20:16:13.931629-07:00","comment":"I like skiing","location":{"latitude":51.04745101928711,"longitude":-114.0693588256836,"country":"CA","region":"AB"},"likes":39,"responses":129}
{"name":"Tobias Shepard","date":"2019-08-03T20:16:13.931629-07:00","comment":"I love hiking","location":{"latitude":49.27980041503906,"longitude":-122.96831512451172,"country":"CA","region":"BC"},"likes":6,"responses":6}
{"name":"Ellie Woods","date":"2020-02-11T20:16:13.931629-08:00","comment":"Maybe I like camping","location":{"latitude":50.9305534362793,"longitude":-113.96337890625,"country":"CA","region":"AB"},"likes":10,"responses":10}
{"name":"Ian Harrison","date":"2019-06-02T20:16:13.931629-07:00","comment":"I like hiking","location":{"latitude":25.074079513549805,"longitude":-77.31635284423828,"country":"BS","region":"NS"},"likes":7,"responses":6}
{"name":"William Farley","date":"2019-09-11T20:16:13.931629-07:00","comment":"I like tacos","location":{"latitude":43.59828567504883,"longitude":-79.78361511230469,"country":"CA","region":"ON"},"likes":1,"responses":4}
{"name":"Diana Wood","date":"2019-09-20T20:16:13.931629-07:00","comment":"I like hiking","location":{"latitude":49.28248977661133,"longitude":-123.12235260009766,"country":"CA","region":"BC"},"likes":17,"responses":52}
{"name":"Elias Acosta","date":"2020-02-13T20:16:13.931629-08:00","comment":"I love skiing","location":{"latitude":43.668792724609375,"longitude":-79.38606262207031,"country":"CA","region":"ON"},"likes":4,"responses":6}
{"name":"Elijah Grimes","date":"2019-10-12T20:16:13.931629-07:00","comment":"I like tacos","location":{"latitude":48.415382385253906,"longitude":-123.35621643066406,"country":"CA","region":"BC"},"likes":1,"responses":57}
{"name":"Vincent Andrews","date":"2019-07-10T20:16:13.931629-07:00","comment":"I like hiking","location":{"latitude":51.101776123046875,"longitude":-114.07260131835938,"country":"CA","region":"AB"},"likes":3,"responses":5}
{"name":"Scarlett Mooney","date":"2019-11-04T20:16:13.931629-08:00","comment":"I hate tacos","location":{"latitude":25.19659996032715,"longitude":55.236671447753906,"country":"AE","region":"DU"},"likes":1,"responses":3}
{"name":"Morgan Simpson","date":"2019-10-31T20:16:13.931629-07:00","comment":"I really hate camping","location":{"latitude":49.19110107421875,"longitude":-122.94703674316406,"country":"CA","region":"BC"},"likes":142,"responses":1}
{"name":"Grady Bowers","date":"2019-04-17T20:16:13.931629-07:00","comment":"I like hiking","location":{"latitude":53.598533630371094,"longitude":-113.49064636230469,"country":"CA","region":"AB"},"likes":2,"responses":3}
{"name":"Luis Cruz","date":"2019-07-18T20:16:13.931629-07:00","comment":"I think I might like hiking","location":{"latitude":24.487939834594727,"longitude":54.37202072143555,"country":"AE","region":"AZ"},"likes":6,"responses":3}
{"name":"Josiah Acosta","date":"2019-08-26T20:16:13.931629-07:00","comment":"I love long walks on the beach","location":{"latitude":43.72677230834961,"longitude":-79.45182800292969,"country":"CA","region":"ON"},"likes":1,"responses":1}
{"name":"Aniyah Booker","date":"2019-12-11T20:16:13.931629-08:00","comment":"I really hate skiing","location":{"latitude":25.133779525756836,"longitude":55.12018966674805,"country":"AE","region":"DU"},"likes":3,"responses":32}
{"name":"Abel Edwards","date":"2019-07-05T20:16:13.931629-07:00","comment":"I like hiking","location":{"latitude":43.640010833740234,"longitude":-79.3809814453125,"country":"CA","region":"ON"},"likes":105,"responses":10}
{"name":"Kingston Wells","date":"2020-02-20T20:16:13.931629-08:00","comment":"I like hiking","location":{"latitude":43.40117645263672,"longitude":-80.32527160644531,"country":"CA","region":"ON"},"likes":7,"responses":25}
{"name":"Arlo Newman","date":"2019-10-02T20:16:13.931629-07:00","comment":"Maybe I like camping","location":{"latitude":24.487939834594727,"longitude":54.37202072143555,"country":"AE","region":"AZ"},"likes":14,"responses":15}
{"name":"Barrett Donaldson","date":"2019-06-22T20:16:13.931629-07:00","comment":"I like hiking","location":{"latitude":49.32426071166992,"longitude":-123.0725326538086,"country":"CA","region":"BC"},"likes":29,"responses":25}
{"name":"Conner Shields","date":"2019-09-04T20:16:13.931629-07:00","comment":"I really hate ice cream","location":{"latitude":49.21305465698242,"longitude":-123.14013671875,"country":"CA","region":"BC"},"likes":2,"responses":65}
{"name":"Harper Huynh","date":"2019-11-08T20:16:13.931629-08:00","comment":"I like skiing","location":{"latitude":43.50906753540039,"longitude":-79.63147735595703,"country":"CA","region":"ON"},"likes":4,"responses":4}
{"name":"Knox Dawson","date":"2019-06-22T20:16:13.931629-07:00","comment":"I hate skiing","location":{"latitude":55.74428939819336,"longitude":-97.8466796875,"country":"CA","region":"MB"},"likes":81,"responses":8}
{"name":"Kaleb Stephenson","date":"2019-07-23T20:16:13.931629-07:00","comment":"I really hate skiing","location":{"latitude":43.72981643676758,"longitude":-79.40364837646484,"country":"CA","region":"ON"},"likes":34,"responses":1}
{"name":"Finley Saunders","date":"2019-06-01T20:16:13.931629-07:00","comment":"I like hiking","location":{"latitude":48.22040939331055,"longitude":16.34747314453125,"country":"AT","region":"9"},"likes":2,"responses":2}
{"name":"Lena Villegas","date":"2019-11-30T20:16:13.931629-08:00","comment":"I like camping","location":{"latitude":50.696964263916016,"longitude":-120.35771942138672,"country":"CA","region":"BC"},"likes":42,"responses":34}
{"name":"Jesus Frazier","date":"2019-06-29T20:16:13.931629-07:00","comment":"I like skiing","location":{"latitude":50.971858978271484,"longitude":-114.0709228515625,"country":"CA","region":"AB"},"likes":109,"responses":30}
{"name":"Jack Klein","date":"2019-03-08T20:16:13.931629-08:00","comment":"I really hate camping","location":{"latitude":49.93822479248047,"longitude":-97.09329223632812,"country":"CA","region":"MB"},"likes":122,"responses":138}
{"name":"Logan Park","date":"2019-10-13T20:16:13.931629-07:00","comment":"I hate hiking","location":{"latitude":52.168460845947266,"longitude":-106.63980865478516,"country":"CA","region":"SK"},"likes":1,"responses":37}
{"name":"Ezra Huerta","date":"2019-07-24T20:16:13.931629-07:00","comment":"I hate tacos","location":{"latitude":45.269588470458984,"longitude":-75.7394027709961,"country":"CA","region":"ON"},"likes":49,"responses":1}
{"name":"Julian Howell","date":"2019-07-03T20:16:13.931629-07:00","comment":"I like hiking","location":{"latitude":43.25615692138672,"longitude":-79.88545227050781,"country":"CA","region":"ON"},"likes":136,"responses":2}
{"name":"Ashley Osborn","date":"2019-08-24T20:16:13.931629-07:00","comment":"I like ice cream","location":{"latitude":43.76877212524414,"longitude":-79.38384246826172,"country":"CA","region":"ON"},"likes":10,"responses":4}
{"name":"Nylah Hall","date":"2019-08-11T20:16:13.931629-07:00","comment":"I really hate skiing","location":{"latitude":44.052734375,"longitude":-79.48158264160156,"country":"CA","region":"ON"},"likes":1,"responses":7}
{"name":"Willow Gill","date":"2019-06-28T20:16:13.931629-07:00","comment":"I think I might like camping","location":{"latitude":43.84933090209961,"longitude":-79.35193634033203,"country":"CA","region":"ON"},"likes":5,"responses":1}
{"name":"Lucy West","date":"2019-04-19T20:16:13.931629-07:00","comment":"I hate long walks on the beach","location":{"latitude":43.64939880371094,"longitude":-79.38301849365234,"country":"CA","region":"ON"},"likes":6,"responses":27}
{"name":"Sophie Clayton","date":"2019-04-29T20:16:13.931629-07:00","comment":"I really hate hiking","location":{"latitude":43.63689422607422,"longitude":-79.62106323242188,"country":"CA","region":"ON"},"likes":67,"responses":17}
{"name":"Sydney Hart","date":"2020-02-06T20:16:13.931629-08:00","comment":"Maybe I like long walks on the beach","location":{"latitude":49.26087188720703,"longitude":-123.1257553100586,"country":"CA","region":"BC"},"likes":1,"responses":20}
{"name":"Elijah Barnett","date":"2019-12-26T20:16:13.931629-08:00","comment":"I really hate camping","location":{"latitude":43.641357421875,"longitude":-79.61459350585938,"country":"CA","region":"ON"},"likes":2,"responses":2}
{"name":"Josephine Farley","date":"2019-08-12T20:16:13.931629-07:00","comment":"I really hate tacos","location":{"latitude":49.89836120605469,"longitude":-97.0669937133789,"country":"CA","region":"MB"},"likes":115,"responses":28}
{"name":"Avery Mathews","date":"2019-04-13T20:16:13.931629-07:00","comment":"I really hate skiing","location":{"latitude":51.12520217895508,"longitude":-114.19889831542969,"country":"CA","region":"AB"},"likes":1,"responses":45}
{"name":"Jeffrey Estrada","date":"2019-06-12T20:16:13.931629-07:00","comment":"I really hate hiking","location":{"latitude":43.66913986206055,"longitude":-79.38896942138672,"country":"CA","region":"ON"},"likes":13,"responses":3}
{"name":"Cadence Stephens","date":"2019-03-20T20:16:13.931629-07:00","comment":"I like tacos","location":{"latitude":49.495792388916016,"longitude":-119.615234375,"country":"CA","region":"BC"},"likes":1,"responses":62}
{"name":"Veronica Craig","date":"2019-05-24T20:16:13.931629-07:00","comment":"Maybe I like camping","location":{"latitude":43.462764739990234,"longitude":-80.52186584472656,"country":"CA","region":"ON"},"likes":5,"responses":15}
{"name":"Alexander Phillips","date":"2019-11-26T20:16:13.931629-08:00","comment":"I like hiking","location":{"latitude":49.89387130737305,"longitude":-97.1985092163086,"country":"CA","region":"MB"},"likes":44,"responses":3}
{"name":"Izabella Jefferson","date":"2019-07-17T20:16:13.931629-07:00","comment":"I love ice cream","location":{"latitude":45.500221252441406,"longitude":-73.50867462158203,"country":"CA","region":"QC"},"likes":12,"responses":8}
{"name":"Benjamin Shields","date":"2019-05-03T20:16:13.931629-07:00","comment":"I like hiking","location":{"latitude":49.28178405761719,"longitude":-123.12458801269531,"country":"CA","region":"BC"},"likes":22,"responses":58}
{"name":"Sean Erickson","date":"2019-11-09T20:16:13.931629-08:00","comment":"I love tacos","location":{"latitude":50.02891540527344,"longitude":-125.24971008300781,"country":"CA","region":"BC"},"likes":45,"responses":15}
{"name":"Jason Krueger","date":"2020-02-05T20:16:13.931629-08:00","comment":"Maybe I like ice cream","location":{"latitude":50.952701568603516,"longitude":-114.06222534179688,"country":"CA","region":"AB"},"likes":27,"responses":124}
{"name":"Alexander Mccarthy","date":"2019-09-06T20:16:13.931629-07:00","comment":"Maybe I like tacos","location":{"latitude":50.276222229003906,"longitude":-119.27606201171875,"country":"CA","region":"BC"},"likes":6,"responses":1}
{"name":"Ava Avery","date":"2020-01-16T20:16:13.931629-08:00","comment":"I really hate hiking","location":{"latitude":50.914329528808594,"longitude":-114.07328033447266,"country":"CA","region":"AB"},"likes":2,"responses":10}
{"name":"Nathan Armstrong","date":"2019-08-21T20:16:13.931629-07:00","comment":"I really hate camping","location":{"latitude":25.191864013671875,"longitude":55.2774772644043,"country":"AE","region":"DU"},"likes":1,"responses":20}
{"name":"Henry Randolph","date":"2019-03-23T20:16:13.931629-07:00","comment":"I like tacos","location":{"latitude":48.19865417480469,"longitude":16.350051879882812,"country":"AT","region":"9"},"likes":39,"responses":15}
{"name":"David Sellers","date":"2019-05-24T20:16:13.931629-07:00","comment":"I love camping","location":{"latitude":22.283939361572266,"longitude":114.15818786621094,"country":"CN","region":"91"},"likes":5,"responses":2}
{"name":"Leah Gallagher","date":"2019-05-26T20:16:13.931629-07:00","comment":"Maybe I like hiking","location":{"latitude":49.05105972290039,"longitude":-122.32463073730469,"country":"CA","region":"BC"},"likes":17,"responses":5}
{"name":"Micah Deleon","date":"2019-09-01T20:16:13.931629-07:00","comment":"I hate camping","location":{"latitude":49.13249969482422,"longitude":-123.09263610839844,"country":"CA","region":"BC"},"likes":13,"responses":51}
{"name":"Declan Dougherty","date":"2020-01-17T20:16:13.931629-08:00","comment":"I hate camping","location":{"latitude":52.16841506958008,"longitude":-106.6371841430664,"country":"CA","region":"SK"},"likes":1,"responses":5}
{"name":"Lydia Moreno","date":"2019-12-24T20:16:13.931629-08:00","comment":"I really hate hiking","location":{"latitude":43.648345947265625,"longitude":-79.50767517089844,"country":"CA","region":"ON"},"likes":19,"responses":1}
{"name":"Lucas Greer","date":"2019-03-18T20:16:13.931629-07:00","comment":"I like long walks on the beach","location":{"latitude":48.610023498535156,"longitude":-93.39208221435547,"country":"CA","region":"ON"},"likes":20,"responses":36}
{"name":"Ryleigh Dominguez","date":"2019-11-17T20:16:13.931629-08:00","comment":"I like tacos","location":{"latitude":43.54890060424805,"longitude":-79.66397857666016,"country":"CA","region":"ON"},"likes":2,"responses":24}
{"name":"Bentley Farrell","date":"2019-09-08T20:16:13.931629-07:00","comment":"I like camping","location":{"latitude":42.42454147338867,"longitude":25.617935180664062,"country":"BG","region":"02"},"likes":126,"responses":15}
{"name":"Aria Hammond","date":"2019-05-21T20:16:13.931629-07:00","comment":"I like hiking","location":{"latitude":43.84494400024414,"longitude":-79.47059631347656,"country":"CA","region":"ON"},"likes":25,"responses":1}
{"name":"Genesis Fuentes","date":"2019-09-19T20:16:13.931629-07:00","comment":"I hate camping","location":{"latitude":43.4996452331543,"longitude":-80.19041442871094,"country":"CA","region":"ON"},"likes":19,"responses":117}
{"name":"Caleb Velazquez","date":"2019-07-09T20:16:13.931629-07:00","comment":"I like ice cream","location":{"latitude":25.231090545654297,"longitude":55.32646942138672,"country":"AE","region":"DU"},"likes":1,"responses":1}
{"name":"Isabelle Mayo","date":"2019-05-27T20:16:13.931629-07:00","comment":"I really hate skiing","location":{"latitude":42.255775451660156,"longitude":-82.96358489990234,"country":"CA","region":"ON"},"likes":55,"responses":19}
{"name":"Gabriel Munoz","date":"2019-03-15T20:16:13.931629-07:00","comment":"I hate hiking","location":{"latitude":26.234920501708984,"longitude":50.55466842651367,"country":"BH","region":"13"},"likes":110,"responses":2}
{"name":"Margaret Delgado","date":"2019-05-18T20:16:13.931629-07:00","comment":"I hate skiing","location":{"latitude":44.6406135559082,"longitude":-63.58654022216797,"country":"CA","region":"NS"},"likes":56,"responses":113}
{"name":"Mckenzie Cannon","date":"2019-05-28T20:16:13.931629-07:00","comment":"I like ice cream","location":{"latitude":49.21302032470703,"longitude":-122.91887664794922,"country":"CA","region":"BC"},"likes":9,"responses":26}
{"name":"Peyton Delacruz","date":"2019-12-27T20:16:13.931629-08:00","comment":"I hate camping","location":{"latitude":45.413150787353516,"longitude":-75.64689636230469,"country":"CA","region":"ON"},"likes":31,"responses":98}
{"name":"Mila Dennis","date":"2019-06-06T20:16:13.931629-07:00","comment":"I think I might like long walks on the beach","location":{"latitude":49.19872283935547,"longitude":-122.97689819335938,"country":"CA","region":"BC"},"likes":13,"responses":12}
{"name":"River Cohen","date":"2019-07-05T20:16:13.931629-07:00","comment":"I love long walks on the beach","location":{"latitude":43.68398666381836,"longitude":-79.61966705322266,"country":"CA","region":"ON"},"likes":11,"responses":2}
{"name":"Jacob Herring","date":"2020-01-11T20:16:13.931629-08:00","comment":"I think I might like long walks on the beach","location":{"latitude":45.41609191894531,"longitude":-75.68901062011719,"country":"CA","region":"ON"},"likes":133,"responses":8}
{"name":"Chase Meza","date":"2019-09-15T20:16:13.931629-07:00","comment":"I like skiing","location":{"latitude":45.49699401855469,"longitude":-73.57561492919922,"country":"CA","region":"QC"},"likes":36,"responses":36}
{"name":"Lawrence Glenn","date":"2019-09-15T20:16:13.931629-07:00","comment":"I hate skiing","location":{"latitude":49.27677536010742,"longitude":-123.12522888183594,"country":"CA","region":"BC"},"likes":7,"responses":3}
{"name":"Alyssa Norris","date":"2019-08-27T20:16:13.931629-07:00","comment":"I really hate ice cream","location":{"latitude":51.041908264160156,"longitude":-114.0369644165039,"country":"CA","region":"AB"},"likes":3,"responses":42}
{"name":"Miriam Owen","date":"2019-03-17T20:16:13.931629-07:00","comment":"I really hate camping","location":{"latitude":25.21111297607422,"longitude":55.27522277832031,"country":"AE","region":"DU"},"likes":107,"responses":112}
{"name":"Malik Howe","date":"2019-08-23T20:16:13.931629-07:00","comment":"I hate skiing","location":{"latitude":48.78617858886719,"longitude":-123.70707702636719,"country":"CA","region":"BC"},"likes":59,"responses":36}
{"name":"Madison Sandoval","date":"2019-08-23T20:16:13.931629-07:00","comment":"I really hate camping","location":{"latitude":43.1548957824707,"longitude":-79.26802062988281,"country":"CA","region":"ON"},"likes":1,"responses":27}
{"name":"King Malone","date":"2019-10-03T20:16:13.931629-07:00","comment":"I hate ice cream","location":{"latitude":49.16366195678711,"longitude":-122.80064392089844,"country":"CA","region":"BC"},"likes":65,"responses":126}
{"name":"Shane Martin","date":"2019-03-14T20:16:13.931629-07:00","comment":"I really hate hiking","location":{"latitude":49.268638610839844,"longitude":-123.15848541259766,"country":"CA","region":"BC"},"likes":1,"responses":50}
{"name":"Arya Carr","date":"2019-04-06T20:16:13.931629-07:00","comment":"I love ice cream","location":{"latitude":49.28557205200195,"longitude":-123.13874816894531,"country":"CA","region":"BC"},"likes":12,"responses":4}
{"name":"Jaden Kane","date":"2019-03-29T20:16:13.931629-07:00","comment":"I hate tacos","location":{"latitude":49.19499206542969,"longitude":-123.17855834960938,"country":"CA","region":"BC"},"likes":6,"responses":135}
{"name":"Alexander Davies","date":"2019-07-31T20:16:13.931629-07:00","comment":"I like skiing","location":{"latitude":50.48258972167969,"longitude":-104.61788940429688,"country":"CA","region":"SK"},"likes":7,"responses":5}
{"name":"Jacob Mejia","date":"2019-09-08T20:16:13.931629-07:00","comment":"Maybe I like hiking","location":{"latitude":55.18354415893555,"longitude":-118.79244995117188,"country":"CA","region":"AB"},"likes":136,"responses":1}
{"name":"Arlo Oneill","date":"2019-12-03T20:16:13.931629-08:00","comment":"I like hiking","location":{"latitude":42.2552490234375,"longitude":-83.00150299072266,"country":"CA","region":"ON"},"likes":87,"responses":110}
{"name":"Oliver Pham","date":"2020-02-08T20:16:13.931629-08:00","comment":"I like skiing","location":{"latitude":25.167890548706055,"longitude":55.22840881347656,"country":"AE","region":"DU"},"likes":5,"responses":31}
{"name":"Michael Orozco","date":"2019-06-17T20:16:13.931629-07:00","comment":"I hate ice cream","location":{"latitude":49.17025375366211,"longitude":-123.18246459960938,"country":"CA","region":"BC"},"likes":2,"responses":25}
{"name":"Brooklyn York","date":"2019-06-07T20:16:13.931629-07:00","comment":"I love hiking","location":{"latitude":45.505531311035156,"longitude":-73.37860870361328,"country":"CA","region":"QC"},"likes":2,"responses":57}
{"name":"Greyson Villegas","date":"2019-05-24T20:16:13.931629-07:00","comment":"Maybe I like hiking","location":{"latitude":52.289024353027344,"longitude":-113.83851623535156,"country":"CA","region":"AB"},"likes":17,"responses":3}
{"name":"Brantley Santiago","date":"2020-01-03T20:16:13.931629-08:00","comment":"I hate hiking","location":{"latitude":49.26323318481445,"longitude":-123.10699462890625,"country":"CA","region":"BC"},"likes":6,"responses":81}
{"name":"Victor King","date":"2019-06-09T20:16:13.931629-07:00","comment":"I really hate camping","location":{"latitude":53.546390533447266,"longitude":-113.48876190185547,"country":"CA","region":"AB"},"likes":16,"responses":46}
{"name":"Noah Odonnell","date":"2019-07-12T20:16:13.931629-07:00","comment":"I love hiking","location":{"latitude":49.139625549316406,"longitude":-121.96318054199219,"country":"CA","region":"BC"},"likes":55,"responses":1}
{"name":"Raelynn Rich","date":"2020-01-26T20:16:13.931629-08:00","comment":"I hate tacos","location":{"latitude":25.266826629638672,"longitude":55.31704330444336,"country":"AE","region":"DU"},"likes":26,"responses":145}
{"name":"Thomas Molina","date":"2019-04-15T20:16:13.931629-07:00","comment":"I like ice cream","location":{"latitude":25.225419998168945,"longitude":55.42552185058594,"country":"AE","region":"DU"},"likes":6,"responses":1}
{"name":"Jax Beasley","date":"2020-02-10T20:16:13.931629-08:00","comment":"Maybe I like hiking","location":{"latitude":43.25615692138672,"longitude":-79.88545227050781,"country":"CA","region":"ON"},"likes":94,"responses":52}
{"name":"Antonella Fleming","date":"2020-01-29T20:16:13.931629-08:00","comment":"I hate camping","location":{"latitude":51.12419891357422,"longitude":-114.24691772460938,"country":"CA","region":"AB"},"likes":59,"responses":37}
{"name":"Nevaeh Pruitt","date":"2019-11-29T20:16:13.931629-08:00","comment":"I hate hiking","location":{"latitude":49.871124267578125,"longitude":-97.15347290039062,"country":"CA","region":"MB"},"likes":94,"responses":40}
{"name":"Liliana Beltran","date":"2019-11-17T20:16:13.931629-08:00","comment":"I like ice cream","location":{"latitude":24.991559982299805,"longitude":55.09347915649414,"country":"AE","region":"DU"},"likes":143,"responses":2}
{"name":"Dylan Howard","date":"2020-03-04T20:16:13.931629-08:00","comment":"Maybe I like camping","location":{"latitude":43.40644454956055,"longitude":-80.38819885253906,"country":"CA","region":"ON"},"likes":50,"responses":145}
{"name":"Adriana Herring","date":"2019-11-18T20:16:13.931629-08:00","comment":"I love camping","location":{"latitude":51.041908264160156,"longitude":-114.0369644165039,"country":"CA","region":"AB"},"likes":1,"responses":6}
{"name":"Jackson Molina","date":"2019-05-06T20:16:13.931629-07:00","comment":"Maybe I like skiing","location":{"latitude":43.51578903198242,"longitude":-79.69078826904297,"country":"CA","region":"ON"},"likes":39,"responses":4}
{"name":"Isaac Bray","date":"2020-02-12T20:16:13.931629-08:00","comment":"I hate ice cream","location":{"latitude":25.080739974975586,"longitude":55.139060974121094,"country":"AE","region":"DU"},"likes":6,"responses":4}
{"name":"Lily Velez","date":"2020-01-19T20:16:13.931629-08:00","comment":"Maybe I like long walks on the beach","location":{"latitude":49.19107437133789,"longitude":-122.84453582763672,"country":"CA","region":"BC"},"likes":8,"responses":3}
{"name":"Hannah Henderson","date":"2019-11-07T20:16:13.931629-08:00","comment":"I really hate camping","location":{"latitude":43.69845962524414,"longitude":-79.39639282226562,"country":"CA","region":"ON"},"likes":42,"responses":2}
{"name":"Sofia Vaughan","date":"2019-05-10T20:16:13.931629-07:00","comment":"I hate tacos","location":{"latitude":49.2642822265625,"longitude":-123.16706848144531,"country":"CA","region":"BC"},"likes":17,"responses":3}
{"name":"Angelo Fox","date":"2019-03-13T20:16:13.931629-07:00","comment":"I hate skiing","location":{"latitude":53.89909744262695,"longitude":-122.77919006347656,"country":"CA","region":"BC"},"likes":1,"responses":21}
{"name":"Callie Leblanc","date":"2020-02-12T20:16:13.931629-08:00","comment":"I hate hiking","location":{"latitude":53.540157318115234,"longitude":-113.57886505126953,"country":"CA","region":"AB"},"likes":18,"responses":1}
{"name":"Sterling Butler","date":"2019-09-13T20:16:13.931629-07:00","comment":"I really hate skiing","location":{"latitude":51.12419891357422,"longitude":-114.24691772460938,"country":"CA","region":"AB"},"likes":3,"responses":41}
{"name":"Jaxson Haney","date":"2019-12-04T20:16:13.931629-08:00","comment":"I really hate skiing","location":{"latitude":42.311859130859375,"longitude":-82.94622039794922,"country":"CA","region":"ON"},"likes":12,"responses":5}
{"name":"Valentina Parrish","date":"2019-05-16T20:16:13.931629-07:00","comment":"I like tacos","location":{"latitude":43.902957916259766,"longitude":-80.11981964111328,"country":"CA","region":"ON"},"likes":5,"responses":7}
{"name":"Melanie Mckay","date":"2019-03-16T20:16:13.931629-07:00","comment":"I like skiing","location":{"latitude":48.19865417480469,"longitude":16.350051879882812,"country":"AT","region":"9"},"likes":117,"responses":88}
{"name":"Grace Pierce","date":"2019-08-01T20:16:13.931629-07:00","comment":"I love long walks on the beach","location":{"latitude":43.8621940612793,"longitude":-79.48513793945312,"country":"CA","region":"ON"},"likes":2,"responses":1}
{"name":"Edward Alexander","date":"2019-05-29T20:16:13.931629-07:00","comment":"I like skiing","location":{"latitude":25.074939727783203,"longitude":55.13251876831055,"country":"AE","region":"DU"},"likes":1,"responses":20}
{"name":"Solomon Cooper","date":"2019-03-11T20:16:13.931629-07:00","comment":"I like camping","location":{"latitude":51.04821014404297,"longitude":-114.06356811523438,"country":"CA","region":"AB"},"likes":49,"responses":9}
{"name":"James Fowler","date":"2019-10-19T20:16:13.931629-07:00","comment":"Maybe I like ice cream","location":{"latitude":49.22614669799805,"longitude":-123.00259399414062,"country":"CA","region":"BC"},"likes":25,"responses":124}
{"name":"Brynlee Harding","date":"2019-08-18T20:16:13.931629-07:00","comment":"I love tacos","location":{"latitude":49.276912689208984,"longitude":-122.85893249511719,"country":"CA","region":"BC"},"likes":1,"responses":17}
{"name":"Isabella Schaefer","date":"2019-12-27T20:16:13.931629-08:00","comment":"I really hate ice cream","location":{"latitude":43.640010833740234,"longitude":-79.3809814453125,"country":"CA","region":"ON"},"likes":2,"responses":1}
{"name":"Luna Howell","date":"2019-03-19T20:16:13.931629-07:00","comment":"I love tacos","location":{"latitude":53.54154968261719,"longitude":-113.30851745605469,"country":"CA","region":"AB"},"likes":2,"responses":3}
{"name":"Claire Gregory","date":"2019-10-13T20:16:13.931629-07:00","comment":"I really hate ice cream","location":{"latitude":45.2867546081543,"longitude":-75.86772155761719,"country":"CA","region":"ON"},"likes":7,"responses":13}
{"name":"Lydia Thomas","date":"2019-06-24T20:16:13.931629-07:00","comment":"I love long walks on the beach","location":{"latitude":51.15685272216797,"longitude":-114.16036224365234,"country":"CA","region":"AB"},"likes":22,"responses":7}
{"name":"Daniel Miles","date":"2019-12-04T20:16:13.931629-08:00","comment":"I like hiking","location":{"latitude":43.65583038330078,"longitude":-79.41156768798828,"country":"CA","region":"ON"},"likes":3,"responses":2}
{"name":"David Taylor","date":"2020-02-16T20:16:13.931629-08:00","comment":"I hate skiing","location":{"latitude":49.28086471557617,"longitude":-122.79953002929688,"country":"CA","region":"BC"},"likes":13,"responses":30}
{"name":"Harper Dunn","date":"2019-03-11T20:16:13.931629-07:00","comment":"I like hiking","location":{"latitude":50.48258972167969,"longitude":-104.61788940429688,"country":"CA","region":"SK"},"likes":33,"responses":2}
{"name":"Jonah Fitzpatrick","date":"2020-02-29T20:16:13.931629-08:00","comment":"I love skiing","location":{"latitude":49.07620620727539,"longitude":-122.6689453125,"country":"CA","region":"BC"},"likes":2,"responses":48}
{"name":"Hunter Hicks","date":"2020-03-05T20:16:13.931629-08:00","comment":"I love skiing","location":{"latitude":51.04130935668945,"longitude":-114.21044921875,"country":"CA","region":"AB"},"likes":13,"responses":3}
{"name":"Zion Brennan","date":"2020-02-29T20:16:13.931629-08:00","comment":"I love ice cream","location":{"latitude":43.19804382324219,"longitude":-80.01597595214844,"country":"CA","region":"ON"},"likes":30,"responses":9}
{"name":"Nicholas Rowland","date":"2020-02-21T20:16:13.931629-08:00","comment":"I love hiking","location":{"latitude":51.02275848388672,"longitude":-114.11639404296875,"country":"CA","region":"AB"},"likes":28,"responses":24}
{"name":"Owen Barrera","date":"2019-08-08T20:16:13.931629-07:00","comment":"I love tacos","location":{"latitude":49.141658782958984,"longitude":-121.96092224121094,"country":"CA","region":"BC"},"likes":8,"responses":65}
{"name":"Carter Cameron","date":"2019-10-12T20:16:13.931629-07:00","comment":"I think I might like tacos","location":{"latitude":48.46896743774414,"longitude":-123.33023071289062,"country":"CA","region":"BC"},"likes":1,"responses":3}
{"name":"Parker Galvan","date":"2019-10-04T20:16:13.931629-07:00","comment":"I hate ice cream","location":{"latitude":26.241689682006836,"longitude":50.58797836303711,"country":"BH","region":"13"},"likes":2,"responses":61}
{"name":"Gabriel Parrish","date":"2019-06-24T20:16:13.931629-07:00","comment":"I like camping","location":{"latitude":43.66241455078125,"longitude":-79.39532470703125,"country":"CA","region":"ON"},"likes":10,"responses":4}
{"name":"Claire Vazquez","date":"2019-12-12T20:16:13.931629-08:00","comment":"I think I might like camping","location":{"latitude":26.23657989501953,"longitude":50.5771598815918,"country":"BH","region":"13"},"likes":13,"responses":20}
{"name":"Jayceon Larsen","date":"2019-08-26T20:16:13.931629-07:00","comment":"I love camping","location":{"latitude":45.302711486816406,"longitude":-66.02294921875,"country":"CA","region":"NB"},"likes":2,"responses":13}
{"name":"Corbin Nelson","date":"2020-01-22T20:16:13.931629-08:00","comment":"Maybe I like long walks on the beach","location":{"latitude":48.4471435546875,"longitude":-123.36878967285156,"country":"CA","region":"BC"},"likes":8,"responses":17}
{"name":"Messiah Patterson","date":"2020-01-15T20:16:13.931629-08:00","comment":"I really hate skiing","location":{"latitude":49.26823043823242,"longitude":-123.1708755493164,"country":"CA","region":"BC"},"likes":137,"responses":124}
{"name":"Madison Jacobson","date":"2019-04-30T20:16:13.931629-07:00","comment":"I think I might like hiking","location":{"latitude":49.265567779541016,"longitude":-123.13816833496094,"country":"CA","region":"BC"},"likes":5,"responses":135}
{"name":"Alexa Stuart","date":"2019-05-16T20:16:13.931629-07:00","comment":"I think I might like ice cream","location":{"latitude":50.99585723876953,"longitude":-114.07347869873047,"country":"CA","region":"AB"},"likes":32,"responses":96}
{"name":"Beau Armstrong","date":"2019-11-29T20:16:13.931629-08:00","comment":"I really hate skiing","location":{"latitude":43.45058059692383,"longitude":-79.70333099365234,"country":"CA","region":"ON"},"likes":2,"responses":41}
{"name":"Maximus Bradford","date":"2019-07-06T20:16:13.931629-07:00","comment":"I like camping","location":{"latitude":49.26823043823242,"longitude":-123.1708755493164,"country":"CA","region":"BC"},"likes":6,"responses":12}
{"name":"Helen Perry","date":"2019-11-28T20:16:13.931629-08:00","comment":"I love camping","location":{"latitude":25.252580642700195,"longitude":55.35408020019531,"country":"AE","region":"DU"},"likes":7,"responses":101}
{"name":"Isaac Snyder","date":"2020-03-04T20:16:13.931629-08:00","comment":"I hate camping","location":{"latitude":-34.54734802246094,"longitude":-58.48585891723633,"country":"AR","region":"C"},"likes":9,"responses":1}
{"name":"Kian Pena","date":"2019-12-11T20:16:13.931629-08:00","comment":"I hate ice cream","location":{"latitude":49.2229118347168,"longitude":-122.91412353515625,"country":"CA","region":"BC"},"likes":106,"responses":7}
{"name":"Kaden Wolfe","date":"2019-09-10T20:16:13.931629-07:00","comment":"I love ice cream","location":{"latitude":49.28131866455078,"longitude":-123.04698944091797,"country":"CA","region":"BC"},"likes":4,"responses":17}
{"name":"Conor Miranda","date":"2019-03-15T20:16:13.931629-07:00","comment":"I like hiking","location":{"latitude":49.52516555786133,"longitude":-115.75399017333984,"country":"CA","region":"BC"},"likes":91,"responses":15}
{"name":"Emily Harris","date":"2019-12-26T20:16:13.931629-08:00","comment":"I love hiking","location":{"latitude":49.835575103759766,"longitude":-99.96166229248047,"country":"CA","region":"MB"},"likes":17,"responses":4}
{"name":"Elena Jacobson","date":"2020-01-14T20:16:13.931629-08:00","comment":"I hate skiing","location":{"latitude":53.537452697753906,"longitude":-113.50142669677734,"country":"CA","region":"AB"},"likes":1,"responses":1}
{"name":"Evelyn Ramirez","date":"2019-04-21T20:16:13.931629-07:00","comment":"I like hiking","location":{"latitude":52.13016891479492,"longitude":-106.6310043334961,"country":"CA","region":"SK"},"likes":6,"responses":55}
{"name":"Brayden Norris","date":"2020-01-23T20:16:13.931629-08:00","comment":"I like hiking","location":{"latitude":25.133779525756836,"longitude":55.12018966674805,"country":"AE","region":"DU"},"likes":111,"responses":114}
{"name":"Joshua Owen","date":"2019-09-02T20:16:13.931629-07:00","comment":"I love ice cream","location":{"latitude":49.2229118347168,"longitude":-122.91412353515625,"country":"CA","region":"BC"},"likes":30,"responses":94}
{"name":"Skyler Barrera","date":"2019-08-30T20:16:13.931629-07:00","comment":"I hate hiking","location":{"latitude":49.06125259399414,"longitude":-122.8123550415039,"country":"CA","region":"BC"},"likes":11,"responses":2}
{"name":"Zion Bowers","date":"2019-04-10T20:16:13.931629-07:00","comment":"I love skiing","location":{"latitude":44.34681701660156,"longitude":-79.70338439941406,"country":"CA","region":"ON"},"likes":47,"responses":17}
{"name":"Joseph Delgado","date":"2019-11-17T20:16:13.931629-08:00","comment":"I think I might like camping","location":{"latitude":43.81710433959961,"longitude":-79.42430114746094,"country":"CA","region":"ON"},"likes":52,"responses":15}
{"name":"Henry Silva","date":"2019-04-12T20:16:13.931629-07:00","comment":"I love tacos","location":{"latitude":50.9305534362793,"longitude":-113.96337890625,"country":"CA","region":"AB"},"likes":88,"responses":33}
{"name":"Maddox Stanley","date":"2019-11-17T20:16:13.931629-08:00","comment":"I like ice cream","location":{"latitude":45.506961822509766,"longitude":-73.56609344482422,"country":"CA","region":"QC"},"likes":44,"responses":44}
{"name":"Faith Sullivan","date":"2020-02-20T20:16:13.931629-08:00","comment":"I really hate camping","location":{"latitude":43.868431091308594,"longitude":-79.31205749511719,"country":"CA","region":"ON"},"likes":11,"responses":31}
{"name":"Shelby Jacobs","date":"2019-05-26T20:16:13.931629-07:00","comment":"I really hate long walks on the beach","location":{"latitude":49.18730926513672,"longitude":-122.8006362915039,"country":"CA","region":"BC"},"likes":9,"responses":22}
{"name":"Bruce Serrano","date":"2020-02-08T20:16:13.931629-08:00","comment":"I love ice cream","location":{"latitude":52.168460845947266,"longitude":-106.63980865478516,"country":"CA","region":"SK"},"likes":80,"responses":3}
{"name":"Everett Golden","date":"2020-01-27T20:16:13.931629-08:00","comment":"I like skiing","location":{"latitude":50.09434127807617,"longitude":-122.99162292480469,"country":"CA","region":"BC"},"likes":6,"responses":10}
{"name":"Remington Chandler","date":"2019-11-09T20:16:13.931629-08:00","comment":"I really hate skiing","location":{"latitude":49.162498474121094,"longitude":-122.8889389038086,"country":"CA","region":"BC"},"likes":6,"responses":1}
{"name":"Connor Briggs","date":"2019-05-17T20:16:13.931629-07:00","comment":"I like ice cream","location":{"latitude":49.29161834716797,"longitude":-123.13533020019531,"country":"CA","region":"BC"},"likes":5,"responses":23}
{"name":"Adrian Bowen","date":"2019-03-28T20:16:13.931629-07:00","comment":"I like hiking","location":{"latitude":48.2403450012207,"longitude":16.386985778808594,"country":"AT","region":"9"},"likes":21,"responses":80}
{"name":"Elena Davis","date":"2019-09-11T20:16:13.931629-07:00","comment":"I like hiking","location":{"latitude":53.51137924194336,"longitude":-113.67578887939453,"country":"CA","region":"AB"},"likes":1,"responses":29}
{"name":"Jesse Wells","date":"2020-02-08T20:16:13.931629-08:00","comment":"I like hiking","location":{"latitude":48.64875030517578,"longitude":-123.39762878417969,"country":"CA","region":"BC"},"likes":63,"responses":3}
{"name":"Emiliano Jordan","date":"2019-05-07T20:16:13.931629-07:00","comment":"I like skiing","location":{"latitude":49.76255416870117,"longitude":-94.48814392089844,"country":"CA","region":"ON"},"likes":21,"responses":88}
{"name":"Amelia Mann","date":"2020-01-29T20:16:13.931629-08:00","comment":"Maybe I like tacos","location":{"latitude":43.82569885253906,"longitude":-79.55701446533203,"country":"CA","region":"ON"},"likes":128,"responses":2}
{"name":"Daniel Short","date":"2019-06-11T20:16:13.931629-07:00","comment":"I hate tacos","location":{"latitude":51.04887771606445,"longitude":-114.06514739990234,"country":"CA","region":"AB"},"likes":1,"responses":10}
{"name":"Levi Spencer","date":"2020-02-12T20:16:13.931629-08:00","comment":"I really hate long walks on the beach","location":{"latitude":53.53729248046875,"longitude":-113.61666107177734,"country":"CA","region":"AB"},"likes":1,"responses":2}
{"name":"Evangeline Freeman","date":"2019-07-14T20:16:13.931629-07:00","comment":"I like hiking","location":{"latitude":49.17086410522461,"longitude":-123.14197540283203,"country":"CA","region":"BC"},"likes":2,"responses":85}
{"name":"Sebastian Figueroa","date":"2019-05-03T20:16:13.931629-07:00","comment":"Maybe I like ice cream","location":{"latitude":53.45371627807617,"longitude":-113.56748962402344,"country":"CA","region":"AB"},"likes":2,"responses":6}
{"name":"Justin Simpson","date":"2019-08-26T20:16:13.931629-07:00","comment":"I really hate hiking","location":{"latitude":53.599853515625,"longitude":-113.48743438720703,"country":"CA","region":"AB"},"likes":12,"responses":18}
{"name":"Matthew Marquez","date":"2019-06-09T20:16:13.931629-07:00","comment":"I think I might like ice cream","location":{"latitude":50.12410354614258,"longitude":-120.76288604736328,"country":"CA","region":"BC"},"likes":57,"responses":2}
{"name":"Asher Oconnor","date":"2019-04-04T20:16:13.931629-07:00","comment":"I really hate camping","location":{"latitude":24.47083854675293,"longitude":54.35245132446289,"country":"AE","region":"AZ"},"likes":1,"responses":81}
{"name":"Hudson Cunningham","date":"2019-11-20T20:16:13.931629-08:00","comment":"I really hate long walks on the beach","location":{"latitude":49.351043701171875,"longitude":-123.25321197509766,"country":"CA","region":"BC"},"likes":71,"responses":12}
{"name":"Kinsley Owens","date":"2020-01-21T20:16:13.931629-08:00","comment":"I think I might like camping","location":{"latitude":43.79410934448242,"longitude":-79.44559478759766,"country":"CA","region":"ON"},"likes":3,"responses":1}
{"name":"Emily Kirby","date":"2019-06-27T20:16:13.931629-07:00","comment":"I hate skiing","location":{"latitude":45.47607421875,"longitude":-73.62232208251953,"country":"CA","region":"QC"},"likes":8,"responses":10}
{"name":"Philip Santiago","date":"2020-03-01T20:16:13.931629-08:00","comment":"I really hate camping","location":{"latitude":49.28376007080078,"longitude":-122.81070709228516,"country":"CA","region":"BC"},"likes":18,"responses":16}
{"name":"Layla Oneill","date":"2019-08-14T20:16:13.931629-07:00","comment":"I hate camping","location":{"latitude":49.25791931152344,"longitude":-123.168212890625,"country":"CA","region":"BC"},"likes":18,"responses":70}
{"name":"Aiden Rodriguez","date":"2020-03-03T20:16:13.931629-08:00","comment":"I hate long walks on the beach","location":{"latitude":50.67171859741211,"longitude":-120.33413696289062,"country":"CA","region":"BC"},"likes":17,"responses":87}
{"name":"Gabriella Calhoun","date":"2019-05-12T20:16:13.931629-07:00","comment":"I like skiing","location":{"latitude":43.49761199951172,"longitude":-79.70751190185547,"country":"CA","region":"ON"},"likes":16,"responses":1}
{"name":"Arlo Knight","date":"2019-04-28T20:16:13.931629-07:00","comment":"I like tacos","location":{"latitude":49.09141159057617,"longitude":-123.07905578613281,"country":"CA","region":"BC"},"likes":37,"responses":26}
{"name":"Hadley Doyle","date":"2020-01-15T20:16:13.931629-08:00","comment":"I think I might like camping","location":{"latitude":51.01484680175781,"longitude":-114.16737365722656,"country":"CA","region":"AB"},"likes":1,"responses":74}
{"name":"Lennon Booker","date":"2019-04-06T20:16:13.931629-07:00","comment":"I like hiking","location":{"latitude":43.72981643676758,"longitude":-79.40364837646484,"country":"CA","region":"ON"},"likes":51,"responses":4}
{"name":"Kinley Jimenez","date":"2020-02-11T20:16:13.931629-08:00","comment":"I really hate hiking","location":{"latitude":49.26728820800781,"longitude":-123.11294555664062,"country":"CA","region":"BC"},"likes":23,"responses":135}
{"name":"Emma Hogan","date":"2019-04-19T20:16:13.931629-07:00","comment":"I like hiking","location":{"latitude":43.728702545166016,"longitude":-79.4184341430664,"country":"CA","region":"ON"},"likes":20,"responses":27}
{"name":"Legend Campbell","date":"2019-09-01T20:16:13.931629-07:00","comment":"I hate camping","location":{"latitude":50.669517517089844,"longitude":-120.35236358642578,"country":"CA","region":"BC"},"likes":1,"responses":10}
{"name":"Elijah Decker","date":"2019-10-13T20:16:13.931629-07:00","comment":"Maybe I like hiking","location":{"latitude":44.50296401977539,"longitude":-80.2193832397461,"country":"CA","region":"ON"},"likes":3,"responses":138}
{"name":"Mila Acevedo","date":"2019-11-06T20:16:13.931629-08:00","comment":"I hate skiing","location":{"latitude":49.27980041503906,"longitude":-122.96831512451172,"country":"CA","region":"BC"},"likes":21,"responses":40}
{"name":"Luke Massey","date":"2019-12-16T20:16:13.931629-08:00","comment":"I like tacos","location":{"latitude":43.678016662597656,"longitude":-79.3902359008789,"country":"CA","region":"ON"},"likes":60,"responses":10}
{"name":"Grace Weaver","date":"2020-02-07T20:16:13.931629-08:00","comment":"Maybe I like hiking","location":{"latitude":42.93715286254883,"longitude":-81.28157043457031,"country":"CA","region":"ON"},"likes":59,"responses":1}
{"name":"Felix Tyler","date":"2019-10-27T20:16:13.931629-07:00","comment":"I really hate hiking","location":{"latitude":49.26884841918945,"longitude":-123.000244140625,"country":"CA","region":"BC"},"likes":60,"responses":4}
{"name":"Matthew Novak","date":"2019-05-29T20:16:13.931629-07:00","comment":"I like ice cream","location":{"latitude":43.71101760864258,"longitude":-79.3990249633789,"country":"CA","region":"ON"},"likes":1,"responses":11}
{"name":"Andre Price","date":"2019-06-25T20:16:13.931629-07:00","comment":"I like tacos","location":{"latitude":43.668792724609375,"longitude":-79.38606262207031,"country":"CA","region":"ON"},"likes":10,"responses":11}
{"name":"Amiyah Watkins","date":"2019-03-27T20:16:13.931629-07:00","comment":"I like ice cream","location":{"latitude":51.04276657104492,"longitude":-114.07111358642578,"country":"CA","region":"AB"},"likes":22,"responses":11}
{"name":"Isaiah Mcconnell","date":"2019-04-26T20:16:13.931629-07:00","comment":"I hate camping","location":{"latitude":49.87397003173828,"longitude":-97.19673919677734,"country":"CA","region":"MB"},"likes":83,"responses":2}
{"name":"Maya Lester","date":"2019-11-07T20:16:13.931629-08:00","comment":"I think I might like tacos","location":{"latitude":49.134674072265625,"longitude":-122.89181518554688,"country":"CA","region":"BC"},"likes":24,"responses":3}
{"name":"Zion Lin","date":"2019-08-29T20:16:13.931629-07:00","comment":"I hate ice cream","location":{"latitude":49.282752990722656,"longitude":-123.085693359375,"country":"CA","region":"BC"},"likes":5,"responses":1}
{"name":"Wyatt Calhoun","date":"2020-01-09T20:16:13.931629-08:00","comment":"Maybe I like hiking","location":{"latitude":43.66241455078125,"longitude":-79.39532470703125,"country":"CA","region":"ON"},"likes":26,"responses":69}
{"name":"James Hampton","date":"2019-07-11T20:16:13.931629-07:00","comment":"I like tacos","location":{"latitude":43.190162658691406,"longitude":-79.22716522216797,"country":"CA","region":"ON"},"likes":12,"responses":115}
{"name":"Catalina Rios","date":"2019-04-23T20:16:13.931629-07:00","comment":"I really hate tacos","location":{"latitude":48.446956634521484,"longitude":-123.372314453125,"country":"CA","region":"BC"},"likes":6,"responses":47}
{"name":"Franklin Hart","date":"2019-09-21T20:16:13.931629-07:00","comment":"I hate tacos","location":{"latitude":25.216859817504883,"longitude":55.25352478027344,"country":"AE","region":"DU"},"likes":3,"responses":78}
{"name":"Charlotte Weiss","date":"2020-02-07T20:16:13.931629-08:00","comment":"I really hate hiking","location":{"latitude":48.476600646972656,"longitude":-123.33281707763672,"country":"CA","region":"BC"},"likes":91,"responses":17}
{"name":"Ellie Pugh","date":"2019-12-15T20:16:13.931629-08:00","comment":"Maybe I like ice cream","location":{"latitude":53.53266525268555,"longitude":-113.29376983642578,"country":"CA","region":"AB"},"likes":1,"responses":121}
{"name":"Theodore Mcmahon","date":"2019-11-27T20:16:13.931629-08:00","comment":"Maybe I like ice cream","location":{"latitude":25.040630340576172,"longitude":55.12131118774414,"country":"AE","region":"DU"},"likes":2,"responses":19}
{"name":"Maria Villanueva","date":"2019-03-15T20:16:13.931629-07:00","comment":"Maybe I like hiking","location":{"latitude":43.6513557434082,"longitude":-79.47587585449219,"country":"CA","region":"ON"},"likes":113,"responses":68}
{"name":"Lukas Vargas","date":"2019-05-29T20:16:13.931629-07:00","comment":"I like long walks on the beach","location":{"latitude":49.162498474121094,"longitude":-122.8889389038086,"country":"CA","region":"BC"},"likes":1,"responses":1}
{"name":"Charles Meadows","date":"2019-03-13T20:16:13.931629-07:00","comment":"I like camping","location":{"latitude":49.265567779541016,"longitude":-123.13816833496094,"country":"CA","region":"BC"},"likes":1,"responses":8}
{"name":"Angelina Alvarez","date":"2020-03-05T20:16:13.931629-08:00","comment":"Maybe I like camping","location":{"latitude":51.101776123046875,"longitude":-114.07260131835938,"country":"CA","region":"AB"},"likes":4,"responses":7}
{"name":"Brandon Guerrero","date":"2019-05-28T20:16:13.931629-07:00","comment":"I really hate skiing","location":{"latitude":48.45454406738281,"longitude":-123.39466094970703,"country":"CA","region":"BC"},"likes":26,"responses":19}
{"name":"Sarah Calderon","date":"2019-07-28T20:16:13.931629-07:00","comment":"I like ice cream","location":{"latitude":49.284912109375,"longitude":-123.11804962158203,"country":"CA","region":"BC"},"likes":7,"responses":4}
{"name":"Ian Thornton","date":"2020-02-27T20:16:13.931629-08:00","comment":"I hate hiking","location":{"latitude":43.844417572021484,"longitude":-79.56007385253906,"country":"CA","region":"ON"},"likes":28,"responses":1}
{"name":"Miles Johnson","date":"2019-12-19T20:16:13.931629-08:00","comment":"I like hiking","location":{"latitude":45.494529724121094,"longitude":-73.57801055908203,"country":"CA","region":"QC"},"likes":1,"responses":9}
{"name":"Felix Gibson","date":"2020-02-12T20:16:13.931629-08:00","comment":"I love camping","location":{"latitude":49.120182037353516,"longitude":-122.73360443115234,"country":"CA","region":"BC"},"likes":1,"responses":63}
{"name":"Royal Russo","date":"2019-11-23T20:16:13.931629-08:00","comment":"Maybe I like skiing","location":{"latitude":53.520904541015625,"longitude":-113.59201049804688,"country":"CA","region":"AB"},"likes":2,"responses":2}
{"name":"Carmen Stephenson","date":"2019-09-19T20:16:13.931629-07:00","comment":"I like hiking","location":{"latitude":49.512176513671875,"longitude":-115.76522827148438,"country":"CA","region":"BC"},"likes":5,"responses":47}
{"name":"Messiah Morrison","date":"2019-07-09T20:16:13.931629-07:00","comment":"I like tacos","location":{"latitude":51.26942443847656,"longitude":-114.00328063964844,"country":"CA","region":"AB"},"likes":3,"responses":78}
{"name":"Carson Novak","date":"2020-02-28T20:16:13.931629-08:00","comment":"I like skiing","location":{"latitude":49.22007369995117,"longitude":-122.6569595336914,"country":"CA","region":"BC"},"likes":1,"responses":1}
{"name":"Mackenzie Hartman","date":"2019-10-07T20:16:13.931629-07:00","comment":"I like hiking","location":{"latitude":43.5183219909668,"longitude":-80.23748779296875,"country":"CA","region":"ON"},"likes":79,"responses":114}
{"name":"Molly Kirk","date":"2019-12-27T20:16:13.931629-08:00","comment":"I really hate long walks on the beach","location":{"latitude":45.50600051879883,"longitude":-73.55563354492188,"country":"CA","region":"QC"},"likes":7,"responses":8}
{"name":"Viviana Juarez","date":"2019-11-12T20:16:13.931629-08:00","comment":"I like tacos","location":{"latitude":49.05105972290039,"longitude":-122.32463073730469,"country":"CA","region":"BC"},"likes":9,"responses":12}
{"name":"Emma Palmer","date":"2019-06-24T20:16:13.931629-07:00","comment":"I like long walks on the beach","location":{"latitude":49.26594543457031,"longitude":-122.77531433105469,"country":"CA","region":"BC"},"likes":3,"responses":1}
{"name":"Caden Craig","date":"2019-10-11T20:16:13.931629-07:00","comment":"I like camping","location":{"latitude":42.28599548339844,"longitude":-83.05680847167969,"country":"CA","region":"ON"},"likes":15,"responses":1}
{"name":"Noah Stephens","date":"2019-05-05T20:16:13.931629-07:00","comment":"I like long walks on the beach","location":{"latitude":49.33412170410156,"longitude":-123.17990112304688,"country":"CA","region":"BC"},"likes":1,"responses":14}
{"name":"Angel Patrick","date":"2019-08-12T20:16:13.931629-07:00","comment":"I think I might like tacos","location":{"latitude":43.52726364135742,"longitude":-79.86615753173828,"country":"CA","region":"ON"},"likes":2,"responses":88}
{"name":"Aria Beard","date":"2019-09-12T20:16:13.931629-07:00","comment":"I like long walks on the beach","location":{"latitude":45.349510192871094,"longitude":-75.78795623779297,"country":"CA","region":"ON"},"likes":53,"responses":3}
{"name":"Nicholas Khan","date":"2019-06-05T20:16:13.931629-07:00","comment":"I really hate camping","location":{"latitude":52.13016891479492,"longitude":-106.6310043334961,"country":"CA","region":"SK"},"likes":2,"responses":91}
{"name":"Mila Herrera","date":"2020-02-20T20:16:13.931629-08:00","comment":"I really hate hiking","location":{"latitude":46.09596633911133,"longitude":-64.7607421875,"country":"CA","region":"NB"},"likes":15,"responses":1}
{"name":"Santiago Buchanan","date":"2019-03-15T20:16:13.931629-07:00","comment":"I hate skiing","location":{"latitude":49.28131866455078,"longitude":-123.04698944091797,"country":"CA","region":"BC"},"likes":1,"responses":1}
{"name":"Noah Singh","date":"2019-10-01T20:16:13.931629-07:00","comment":"Maybe I like ice cream","location":{"latitude":51.18922805786133,"longitude":-114.47473907470703,"country":"CA","region":"AB"},"likes":48,"responses":9}
{"name":"Liam Daniels","date":"2019-05-22T20:16:13.931629-07:00","comment":"Maybe I like long walks on the beach","location":{"latitude":43.816307067871094,"longitude":-79.29331970214844,"country":"CA","region":"ON"},"likes":15,"responses":2}
{"name":"Isaiah Khan","date":"2020-01-05T20:16:13.931629-08:00","comment":"I like ice cream","location":{"latitude":49.160247802734375,"longitude":-122.66716003417969,"country":"CA","region":"BC"},"likes":59,"responses":1}
{"name":"Zion Perkins","date":"2019-04-29T20:16:13.931629-07:00","comment":"I really hate hiking","location":{"latitude":25.29776954650879,"longitude":55.48414993286133,"country":"AE","region":"SH"},"likes":3,"responses":2}
{"name":"Aria Escobar","date":"2019-04-10T20:16:13.931629-07:00","comment":"I hate ice cream","location":{"latitude":43.678794860839844,"longitude":-79.34630584716797,"country":"CA","region":"ON"},"likes":20,"responses":2}
{"name":"Nathan Madden","date":"2020-01-17T20:16:13.931629-08:00","comment":"I love skiing","location":{"latitude":49.88615036010742,"longitude":-119.48898315429688,"country":"CA","region":"BC"},"likes":1,"responses":1}
{"name":"Charles Boyer","date":"2019-10-27T20:16:13.931629-07:00","comment":"I like hiking","location":{"latitude":43.570281982421875,"longitude":-79.602783203125,"country":"CA","region":"ON"},"likes":16,"responses":5}
{"name":"Rebecca Trujillo","date":"2019-05-27T20:16:13.931629-07:00","comment":"I like skiing","location":{"latitude":43.68149185180664,"longitude":-79.4258041381836,"country":"CA","region":"ON"},"likes":143,"responses":3}
{"name":"Matthew Strong","date":"2019-04-08T20:16:13.931629-07:00","comment":"I like ice cream","location":{"latitude":49.12474060058594,"longitude":-122.7028579711914,"country":"CA","region":"BC"},"likes":2,"responses":89}
{"name":"Madeline Bradshaw","date":"2019-07-16T20:16:13.931629-07:00","comment":"I think I might like tacos","location":{"latitude":49.26594543457031,"longitude":-122.77531433105469,"country":"CA","region":"BC"},"likes":1,"responses":25}
{"name":"Jack Shah","date":"2020-02-03T20:16:13.931629-08:00","comment":"I hate skiing","location":{"latitude":52.115234375,"longitude":-106.6200942993164,"country":"CA","region":"SK"},"likes":18,"responses":1}
{"name":"David Mata","date":"2020-01-28T20:16:13.931629-08:00","comment":"I hate skiing","location":{"latitude":49.06125259399414,"longitude":-122.8123550415039,"country":"CA","region":"BC"},"likes":4,"responses":11}
{"name":"Eli Alvarado","date":"2019-08-27T20:16:13.931629-07:00","comment":"Maybe I like skiing","location":{"latitude":53.54079818725586,"longitude":-113.52702331542969,"country":"CA","region":"AB"},"likes":25,"responses":3}
{"name":"Dylan Reynolds","date":"2019-10-15T20:16:13.931629-07:00","comment":"I like hiking","location":{"latitude":43.71101760864258,"longitude":-79.3990249633789,"country":"CA","region":"ON"},"likes":6,"responses":1}
{"name":"Santiago Berry","date":"2019-08-17T20:16:13.931629-07:00","comment":"I really hate hiking","location":{"latitude":45.34550476074219,"longitude":-80.00667572021484,"country":"CA","region":"ON"},"likes":17,"responses":5}
{"name":"Elliot Henson","date":"2019-07-26T20:16:13.931629-07:00","comment":"I like camping","location":{"latitude":43.844417572021484,"longitude":-79.56007385253906,"country":"CA","region":"ON"},"likes":5,"responses":1}
{"name":"Malachi Levy","date":"2020-02-16T20:16:13.931629-08:00","comment":"I love skiing","location":{"latitude":53.60105514526367,"longitude":-113.42273712158203,"country":"CA","region":"AB"},"likes":108,"responses":43}
{"name":"Luke Macdonald","date":"2020-01-15T20:16:13.931629-08:00","comment":"I love hiking","location":{"latitude":43.63689422607422,"longitude":-79.62106323242188,"country":"CA","region":"ON"},"likes":2,"responses":118}
{"name":"Madison Avila","date":"2019-06-22T20:16:13.931629-07:00","comment":"I hate hiking","location":{"latitude":49.28443908691406,"longitude":-123.10851287841797,"country":"CA","region":"BC"},"likes":81,"responses":3}
{"name":"Elsie Gonzales","date":"2019-10-09T20:16:13.931629-07:00","comment":"I really hate long walks on the beach","location":{"latitude":50.006893157958984,"longitude":-110.6649398803711,"country":"CA","region":"AB"},"likes":30,"responses":3}
{"name":"Adelynn Woods","date":"2019-09-14T20:16:13.931629-07:00","comment":"I like long walks on the beach","location":{"latitude":53.5658073425293,"longitude":-113.52088165283203,"country":"CA","region":"AB"},"likes":43,"responses":6}
{"name":"Alexa Marshall","date":"2019-12-25T20:16:13.931629-08:00","comment":"I really hate long walks on the beach","location":{"latitude":49.027992248535156,"longitude":-122.26580047607422,"country":"CA","region":"BC"},"likes":8,"responses":133}
{"name":"Gunner Benitez","date":"2019-11-15T20:16:13.931629-08:00","comment":"I like hiking","location":{"latitude":51.092750549316406,"longitude":-115.3576889038086,"country":"CA","region":"AB"},"likes":14,"responses":2}
{"name":"Evelyn Kaufman","date":"2020-01-28T20:16:13.931629-08:00","comment":"I love camping","location":{"latitude":26.234920501708984,"longitude":50.55466842651367,"country":"BH","region":"13"},"likes":5,"responses":9}
{"name":"Santiago Rose","date":"2019-03-20T20:16:13.931629-07:00","comment":"Maybe I like long walks on the beach","location":{"latitude":49.09141159057617,"longitude":-123.07905578613281,"country":"CA","region":"BC"},"likes":3,"responses":125}
{"name":"Lucas Abbott","date":"2019-11-05T20:16:13.931629-08:00","comment":"I like hiking","location":{"latitude":25.215539932250977,"longitude":55.278900146484375,"country":"AE","region":"DU"},"likes":43,"responses":25}
{"name":"Harrison Sweeney","date":"2020-01-06T20:16:13.931629-08:00","comment":"I love camping","location":{"latitude":49.134674072265625,"longitude":-122.89181518554688,"country":"CA","region":"BC"},"likes":1,"responses":9}
{"name":"Henry Burke","date":"2020-02-16T20:16:13.931629-08:00","comment":"I love ice cream","location":{"latitude":-34.603912353515625,"longitude":-58.41093826293945,"country":"AR","region":"C"},"likes":14,"responses":35}
{"name":"Ava Colon","date":"2019-12-11T20:16:13.931629-08:00","comment":"I hate ice cream","location":{"latitude":43.81040573120117,"longitude":-79.45419311523438,"country":"CA","region":"ON"},"likes":2,"responses":1}
{"name":"Oscar Strong","date":"2019-07-10T20:16:13.931629-07:00","comment":"I hate skiing","location":{"latitude":45.56890869140625,"longitude":-73.72633361816406,"country":"CA","region":"QC"},"likes":16,"responses":17}
{"name":"Roberto Mercer","date":"2019-05-22T20:16:13.931629-07:00","comment":"I hate ice cream","location":{"latitude":53.017982482910156,"longitude":-112.85911560058594,"country":"CA","region":"AB"},"likes":30,"responses":2}
{"name":"Dax Camacho","date":"2019-12-16T20:16:13.931629-08:00","comment":"I love skiing","location":{"latitude":-34.56881332397461,"longitude":-58.44374465942383,"country":"AR","region":"C"},"likes":20,"responses":3}
{"name":"Lyla Mccullough","date":"2019-06-14T20:16:13.931629-07:00","comment":"Maybe I like camping","location":{"latitude":51.09354019165039,"longitude":-115.35652160644531,"country":"CA","region":"AB"},"likes":64,"responses":121}
{"name":"Lena French","date":"2020-03-05T20:16:13.931629-08:00","comment":"I think I might like long walks on the beach","location":{"latitude":45.45729064941406,"longitude":-73.75273132324219,"country":"CA","region":"QC"},"likes":1,"responses":55}
{"name":"Ana Cortez","date":"2019-08-11T20:16:13.931629-07:00","comment":"Maybe I like camping","location":{"latitude":43.1303825378418,"longitude":-80.28594970703125,"country":"CA","region":"ON"},"likes":2,"responses":1}
{"name":"Ryker Day","date":"2019-03-14T20:16:13.931629-07:00","comment":"I love camping","location":{"latitude":25.102262496948242,"longitude":55.162452697753906,"country":"AE","region":"DU"},"likes":5,"responses":99}
{"name":"Raiden Khan","date":"2019-09-29T20:16:13.931629-07:00","comment":"I like camping","location":{"latitude":49.22513198852539,"longitude":-123.09048461914062,"country":"CA","region":"BC"},"likes":2,"responses":52}
{"name":"Alexis Moyer","date":"2020-01-05T20:16:13.931629-08:00","comment":"Maybe I like long walks on the beach","location":{"latitude":53.546390533447266,"longitude":-113.48876190185547,"country":"CA","region":"AB"},"likes":85,"responses":2}
{"name":"Penelope Young","date":"2019-11-16T20:16:13.931629-08:00","comment":"Maybe I like long walks on the beach","location":{"latitude":49.89430618286133,"longitude":-97.13862609863281,"country":"CA","region":"MB"},"likes":22,"responses":5}
{"name":"Easton Santos","date":"2019-04-03T20:16:13.931629-07:00","comment":"I like hiking","location":{"latitude":25.202909469604492,"longitude":55.27437973022461,"country":"AE","region":"DU"},"likes":123,"responses":12}
{"name":"Tyler Hudson","date":"2019-04-03T20:16:13.931629-07:00","comment":"I hate hiking","location":{"latitude":50.985416412353516,"longitude":-114.08255767822266,"country":"CA","region":"AB"},"likes":93,"responses":100}
{"name":"Sebastian Bautista","date":"2019-07-01T20:16:13.931629-07:00","comment":"I really hate camping","location":{"latitude":49.10447311401367,"longitude":-122.72527313232422,"country":"CA","region":"BC"},"likes":63,"responses":21}
{"name":"Vincent Lyons","date":"2019-06-07T20:16:13.931629-07:00","comment":"I think I might like camping","location":{"latitude":49.273372650146484,"longitude":-123.12002563476562,"country":"CA","region":"BC"},"likes":18,"responses":28}
{"name":"Simon Galloway","date":"2019-10-20T20:16:13.931629-07:00","comment":"I like skiing","location":{"latitude":55.18354415893555,"longitude":-118.79244995117188,"country":"CA","region":"AB"},"likes":139,"responses":10}
{"name":"Penelope Kelley","date":"2019-11-09T20:16:13.931629-08:00","comment":"I think I might like ice cream","location":{"latitude":49.27980041503906,"longitude":-122.96831512451172,"country":"CA","region":"BC"},"likes":3,"responses":9}
{"name":"Samantha Castaneda","date":"2020-02-04T20:16:13.931629-08:00","comment":"I like camping","location":{"latitude":43.816307067871094,"longitude":-79.29331970214844,"country":"CA","region":"ON"},"likes":54,"responses":61}
{"name":"Allison Prince","date":"2019-05-24T20:16:13.931629-07:00","comment":"I like long walks on the beach","location":{"latitude":26.26959991455078,"longitude":50.62607955932617,"country":"BH","region":"15"},"likes":27,"responses":1}
{"name":"Patrick Dixon","date":"2019-11-15T20:16:13.931629-08:00","comment":"I hate long walks on the beach","location":{"latitude":49.27067565917969,"longitude":-122.75536346435547,"country":"CA","region":"BC"},"likes":14,"responses":17}
{"name":"Jaxon Clements","date":"2019-05-02T20:16:13.931629-07:00","comment":"I like long walks on the beach","location":{"latitude":49.194618225097656,"longitude":-123.17654418945312,"country":"CA","region":"BC"},"likes":47,"responses":2}
{"name":"Elizabeth Gutierrez","date":"2019-12-16T20:16:13.931629-08:00","comment":"I hate hiking","location":{"latitude":49.30594253540039,"longitude":-123.03716278076172,"country":"CA","region":"BC"},"likes":2,"responses":17}
{"name":"Rachel Clay","date":"2019-09-01T20:16:13.931629-07:00","comment":"I like skiing","location":{"latitude":49.37248229980469,"longitude":-123.0986557006836,"country":"CA","region":"BC"},"likes":1,"responses":14}
{"name":"Odin Mendez","date":"2019-11-04T20:16:13.931629-08:00","comment":"I think I might like long walks on the beach","location":{"latitude":48.43347930908203,"longitude":-89.22491455078125,"country":"CA","region":"ON"},"likes":3,"responses":2}
{"name":"Evelyn Roach","date":"2020-02-20T20:16:13.931629-08:00","comment":"I like skiing","location":{"latitude":43.728702545166016,"longitude":-79.4184341430664,"country":"CA","region":"ON"},"likes":22,"responses":64}
{"name":"Violet Pruitt","date":"2019-07-20T20:16:13.931629-07:00","comment":"I think I might like skiing","location":{"latitude":45.423248291015625,"longitude":-75.6876449584961,"country":"CA","region":"ON"},"likes":8,"responses":3}
{"name":"Kingston Phelps","date":"2019-09-07T20:16:13.931629-07:00","comment":"I hate skiing","location":{"latitude":43.844417572021484,"longitude":-79.56007385253906,"country":"CA","region":"ON"},"likes":17,"responses":5}
{"name":"Ezra Carpenter","date":"2019-12-13T20:16:13.931629-08:00","comment":"I like tacos","location":{"latitude":50.11903381347656,"longitude":-122.9565658569336,"country":"CA","region":"BC"},"likes":1,"responses":62}
{"name":"Gage Andrade","date":"2019-09-12T20:16:13.931629-07:00","comment":"I think I might like skiing","location":{"latitude":50.90678787231445,"longitude":-114.06671905517578,"country":"CA","region":"AB"},"likes":1,"responses":1}
{"name":"Mia Erickson","date":"2020-02-13T20:16:13.931629-08:00","comment":"I like skiing","location":{"latitude":49.823646545410156,"longitude":-97.20333099365234,"country":"CA","region":"MB"},"likes":27,"responses":45}
{"name":"John Quinn","date":"2019-04-16T20:16:13.931629-07:00","comment":"I love camping","location":{"latitude":45.50243377685547,"longitude":-73.57176208496094,"country":"CA","region":"QC"},"likes":5,"responses":140}
{"name":"Mia Chan","date":"2019-08-11T20:16:13.931629-07:00","comment":"I really hate long walks on the beach","location":{"latitude":43.64924621582031,"longitude":-79.37813568115234,"country":"CA","region":"ON"},"likes":29,"responses":2}
{"name":"Laila Cannon","date":"2019-03-19T20:16:13.931629-07:00","comment":"I love ice cream","location":{"latitude":49.22614669799805,"longitude":-123.00259399414062,"country":"CA","region":"BC"},"likes":128,"responses":22}
{"name":"Owen Walker","date":"2019-11-16T20:16:13.931629-08:00","comment":"I think I might like skiing","location":{"latitude":45.50209045410156,"longitude":-73.56875610351562,"country":"CA","region":"QC"},"likes":18,"responses":36}
{"name":"Sawyer Mclean","date":"2019-08-23T20:16:13.931629-07:00","comment":"I like skiing","location":{"latitude":43.82260513305664,"longitude":-79.35059356689453,"country":"CA","region":"ON"},"likes":3,"responses":13}
{"name":"Zoey Nash","date":"2019-12-05T20:16:13.931629-08:00","comment":"I love hiking","location":{"latitude":49.823524475097656,"longitude":-97.08364868164062,"country":"CA","region":"MB"},"likes":3,"responses":1}
{"name":"Elias Stokes","date":"2019-05-02T20:16:13.931629-07:00","comment":"Maybe I like camping","location":{"latitude":42.30535888671875,"longitude":-82.8598861694336,"country":"CA","region":"ON"},"likes":3,"responses":4}
{"name":"Sophia Shepherd","date":"2019-04-26T20:16:13.931629-07:00","comment":"I really hate camping","location":{"latitude":49.162498474121094,"longitude":-122.8889389038086,"country":"CA","region":"BC"},"likes":9,"responses":9}
{"name":"Evan Davis","date":"2019-10-22T20:16:13.931629-07:00","comment":"I think I might like skiing","location":{"latitude":49.19499206542969,"longitude":-123.17855834960938,"country":"CA","region":"BC"},"likes":2,"responses":7}
{"name":"Jace Floyd","date":"2019-08-30T20:16:13.931629-07:00","comment":"I hate hiking","location":{"latitude":53.534324645996094,"longitude":-113.617919921875,"country":"CA","region":"AB"},"likes":9,"responses":6}
{"name":"Robert Soto","date":"2019-05-12T20:16:13.931629-07:00","comment":"I like skiing","location":{"latitude":45.935813903808594,"longitude":-66.6655044555664,"country":"CA","region":"NB"},"likes":25,"responses":21}
{"name":"Brynn Meyers","date":"2019-08-11T20:16:13.931629-07:00","comment":"I like hiking","location":{"latitude":25.253740310668945,"longitude":55.303497314453125,"country":"AE","region":"DU"},"likes":142,"responses":42}
{"name":"Jordyn Nicholson","date":"2020-01-03T20:16:13.931629-08:00","comment":"Maybe I like hiking","location":{"latitude":43.68149185180664,"longitude":-79.4258041381836,"country":"CA","region":"ON"},"likes":3,"responses":37}
{"name":"Ari Blackburn","date":"2019-04-19T20:16:13.931629-07:00","comment":"I love hiking","location":{"latitude":49.76255416870117,"longitude":-94.48814392089844,"country":"CA","region":"ON"},"likes":93,"responses":89}
{"name":"Walter Obrien","date":"2019-05-07T20:16:13.931629-07:00","comment":"I think I might like tacos","location":{"latitude":42.97473907470703,"longitude":-81.3204574584961,"country":"CA","region":"ON"},"likes":6,"responses":129}
{"name":"Victor Mcmillan","date":"2019-05-26T20:16:13.931629-07:00","comment":"I think I might like skiing","location":{"latitude":49.193424224853516,"longitude":-123.95501708984375,"country":"CA","region":"BC"},"likes":39,"responses":20}
{"name":"Isabella Johnston","date":"2019-09-12T20:16:13.931629-07:00","comment":"I like ice cream","location":{"latitude":48.610023498535156,"longitude":-93.39208221435547,"country":"CA","region":"ON"},"likes":9,"responses":48}
{"name":"Esther Wilkins","date":"2019-05-21T20:16:13.931629-07:00","comment":"I like skiing","location":{"latitude":49.262977600097656,"longitude":-123.09879302978516,"country":"CA","region":"BC"},"likes":3,"responses":50}
{"name":"Israel Chung","date":"2019-09-24T20:16:13.931629-07:00","comment":"I like tacos","location":{"latitude":43.651336669921875,"longitude":-79.37468719482422,"country":"CA","region":"ON"},"likes":12,"responses":135}
{"name":"Noah Castillo","date":"2019-04-03T20:16:13.931629-07:00","comment":"Maybe I like tacos","location":{"latitude":49.893653869628906,"longitude":-97.1425552368164,"country":"CA","region":"MB"},"likes":20,"responses":8}
{"name":"Maeve Mercado","date":"2019-05-27T20:16:13.931629-07:00","comment":"I love hiking","location":{"latitude":25.323139190673828,"longitude":55.37833023071289,"country":"AE","region":"SH"},"likes":116,"responses":15}
{"name":"Phillip Wright","date":"2019-04-22T20:16:13.931629-07:00","comment":"I like camping","location":{"latitude":43.45756912231445,"longitude":-79.67861938476562,"country":"CA","region":"ON"},"likes":133,"responses":1}
{"name":"Jace Vance","date":"2019-08-20T20:16:13.931629-07:00","comment":"I think I might like hiking","location":{"latitude":43.19804382324219,"longitude":-80.01597595214844,"country":"CA","region":"ON"},"likes":18,"responses":5}
{"name":"Kali Molina","date":"2019-04-28T20:16:13.931629-07:00","comment":"I really hate ice cream","location":{"latitude":25.323139190673828,"longitude":55.37833023071289,"country":"AE","region":"SH"},"likes":1,"responses":3}
{"name":"Briella Joseph","date":"2019-12-23T20:16:13.931629-08:00","comment":"Maybe I like hiking","location":{"latitude":26.23253059387207,"longitude":50.536441802978516,"country":"BH","region":"13"},"likes":82,"responses":24}
{"name":"Jennifer Juarez","date":"2020-03-02T20:16:13.931629-08:00","comment":"I hate ice cream","location":{"latitude":50.93244171142578,"longitude":-113.970458984375,"country":"CA","region":"AB"},"likes":25,"responses":32}
{"name":"Alijah Patterson","date":"2020-01-14T20:16:13.931629-08:00","comment":"I like long walks on the beach","location":{"latitude":43.65583038330078,"longitude":-79.41156768798828,"country":"CA","region":"ON"},"likes":21,"responses":4}
{"name":"Benjamin Hart","date":"2019-09-23T20:16:13.931629-07:00","comment":"I like long walks on the beach","location":{"latitude":43.85061264038086,"longitude":-79.3529052734375,"country":"CA","region":"ON"},"likes":1,"responses":38}
{"name":"Giselle Horne","date":"2020-01-02T20:16:13.931629-08:00","comment":"I like ice cream","location":{"latitude":49.89430618286133,"longitude":-97.13862609863281,"country":"CA","region":"MB"},"likes":146,"responses":101}
{"name":"Carter Arellano","date":"2020-01-31T20:16:13.931629-08:00","comment":"I hate tacos","location":{"latitude":43.664939880371094,"longitude":-79.36840057373047,"country":"CA","region":"ON"},"likes":102,"responses":3}
{"name":"Charlotte Larson","date":"2019-09-03T20:16:13.931629-07:00","comment":"I really hate skiing","location":{"latitude":43.63689422607422,"longitude":-79.62106323242188,"country":"CA","region":"ON"},"likes":34,"responses":30}
{"name":"Luna Stafford","date":"2019-11-04T20:16:13.931629-08:00","comment":"I love hiking","location":{"latitude":45.403194427490234,"longitude":-75.6882553100586,"country":"CA","region":"ON"},"likes":5,"responses":3}
{"name":"Margaret Forbes","date":"2019-09-07T20:16:13.931629-07:00","comment":"I really hate long walks on the beach","location":{"latitude":49.23833465576172,"longitude":-124.05448150634766,"country":"CA","region":"BC"},"likes":51,"responses":26}
{"name":"Magnolia Booker","date":"2019-10-22T20:16:13.931629-07:00","comment":"I hate skiing","location":{"latitude":43.683799743652344,"longitude":-79.61968994140625,"country":"CA","region":"ON"},"likes":25,"responses":10}
{"name":"Emilia Avila","date":"2019-11-27T20:16:13.931629-08:00","comment":"I like tacos","location":{"latitude":53.520904541015625,"longitude":-113.59201049804688,"country":"CA","region":"AB"},"likes":1,"responses":26}
{"name":"Ethan Arroyo","date":"2019-06-12T20:16:13.931629-07:00","comment":"I like camping","location":{"latitude":43.483055114746094,"longitude":-79.69617462158203,"country":"CA","region":"ON"},"likes":117,"responses":2}
{"name":"Beau Randall","date":"2019-03-22T20:16:13.931629-07:00","comment":"Maybe I like long walks on the beach","location":{"latitude":51.28947067260742,"longitude":-114.01390075683594,"country":"CA","region":"AB"},"likes":52,"responses":1}
{"name":"Josiah Landry","date":"2019-07-25T20:16:13.931629-07:00","comment":"Maybe I like camping","location":{"latitude":50.12410354614258,"longitude":-120.76288604736328,"country":"CA","region":"BC"},"likes":8,"responses":1}
{"name":"Emery Lutz","date":"2020-01-14T20:16:13.931629-08:00","comment":"I hate hiking","location":{"latitude":43.64597702026367,"longitude":-79.37998962402344,"country":"CA","region":"ON"},"likes":24,"responses":87}
{"name":"Scarlett Ball","date":"2019-09-08T20:16:13.931629-07:00","comment":"I like hiking","location":{"latitude":43.72677230834961,"longitude":-79.45182800292969,"country":"CA","region":"ON"},"likes":2,"responses":90}
{"name":"Josiah Mathews","date":"2019-08-26T20:16:13.931629-07:00","comment":"I really hate hiking","location":{"latitude":48.22040939331055,"longitude":16.34747314453125,"country":"AT","region":"9"},"likes":36,"responses":26}
{"name":"Michael Archer","date":"2019-09-21T20:16:13.931629-07:00","comment":"I like hiking","location":{"latitude":45.33468246459961,"longitude":-75.72692108154297,"country":"CA","region":"ON"},"likes":1,"responses":37}
{"name":"Kenneth Bartlett","date":"2019-06-20T20:16:13.931629-07:00","comment":"I think I might like skiing","location":{"latitude":49.811885833740234,"longitude":-97.15472412109375,"country":"CA","region":"MB"},"likes":5,"responses":1}
{"name":"Caden Harris","date":"2019-12-01T20:16:13.931629-08:00","comment":"I hate hiking","location":{"latitude":49.250518798828125,"longitude":-122.89456939697266,"country":"CA","region":"BC"},"likes":138,"responses":2}
{"name":"Isaac Morton","date":"2019-09-11T20:16:13.931629-07:00","comment":"I think I might like hiking","location":{"latitude":49.190731048583984,"longitude":-122.8462142944336,"country":"CA","region":"BC"},"likes":28,"responses":11}
{"name":"Adrian Larsen","date":"2019-11-28T20:16:13.931629-08:00","comment":"I hate long walks on the beach","location":{"latitude":51.02275848388672,"longitude":-114.11639404296875,"country":"CA","region":"AB"},"likes":51,"responses":17}
{"name":"Isla Hardin","date":"2020-02-19T20:16:13.931629-08:00","comment":"I hate skiing","location":{"latitude":43.405494689941406,"longitude":-79.80809783935547,"country":"CA","region":"ON"},"likes":1,"responses":5}
{"name":"Ryder Reese","date":"2019-07-21T20:16:13.931629-07:00","comment":"I like long walks on the beach","location":{"latitude":48.446956634521484,"longitude":-123.372314453125,"country":"CA","region":"BC"},"likes":36,"responses":3}
{"name":"Oliver Camacho","date":"2019-09-05T20:16:13.931629-07:00","comment":"I really hate tacos","location":{"latitude":51.06480026245117,"longitude":-114.09077453613281,"country":"CA","region":"AB"},"likes":2,"responses":35}
{"name":"Leo Davila","date":"2019-12-02T20:16:13.931629-08:00","comment":"I hate camping","location":{"latitude":53.537452697753906,"longitude":-113.50142669677734,"country":"CA","region":"AB"},"likes":4,"responses":101}
{"name":"Owen Velez","date":"2020-01-13T20:16:13.931629-08:00","comment":"I like ice cream","location":{"latitude":53.46421813964844,"longitude":-113.49309539794922,"country":"CA","region":"AB"},"likes":31,"responses":14}
{"name":"Ali Carlson","date":"2019-06-24T20:16:13.931629-07:00","comment":"Maybe I like skiing","location":{"latitude":43.73506164550781,"longitude":-79.34391021728516,"country":"CA","region":"ON"},"likes":2,"responses":3}
{"name":"Nevaeh Eaton","date":"2019-05-27T20:16:13.931629-07:00","comment":"I think I might like ice cream","location":{"latitude":50.48258972167969,"longitude":-104.61788940429688,"country":"CA","region":"SK"},"likes":31,"responses":9}
{"name":"Romeo Oconnor","date":"2019-08-17T20:16:13.931629-07:00","comment":"I like hiking","location":{"latitude":45.50600051879883,"longitude":-73.55563354492188,"country":"CA","region":"QC"},"likes":92,"responses":19}
{"name":"Victoria Gonzalez","date":"2019-11-25T20:16:13.931629-08:00","comment":"I hate hiking","location":{"latitude":48.20762634277344,"longitude":16.367094039916992,"country":"AT","region":"9"},"likes":76,"responses":1}
{"name":"Sophia Love","date":"2020-03-02T20:16:13.931629-08:00","comment":"Maybe I like long walks on the beach","location":{"latitude":42.31743240356445,"longitude":-83.03915405273438,"country":"CA","region":"ON"},"likes":1,"responses":1}
{"name":"Axel Hill","date":"2020-02-28T20:16:13.931629-08:00","comment":"I think I might like skiing","location":{"latitude":49.16447830200195,"longitude":-122.66482543945312,"country":"CA","region":"BC"},"likes":42,"responses":1}
{"name":"Talia Zuniga","date":"2020-01-28T20:16:13.931629-08:00","comment":"I like ice cream","location":{"latitude":49.27680969238281,"longitude":-123.1148452758789,"country":"CA","region":"BC"},"likes":13,"responses":1}
{"name":"Charles Gillespie","date":"2020-01-31T20:16:13.931629-08:00","comment":"I hate tacos","location":{"latitude":49.21317672729492,"longitude":-122.92085266113281,"country":"CA","region":"BC"},"likes":28,"responses":23}
{"name":"Ivan Chung","date":"2019-08-29T20:16:13.931629-07:00","comment":"I like long walks on the beach","location":{"latitude":53.598533630371094,"longitude":-113.49064636230469,"country":"CA","region":"AB"},"likes":108,"responses":43}
{"name":"Carter Hampton","date":"2020-01-28T20:16:13.931629-08:00","comment":"I think I might like skiing","location":{"latitude":42.99231719970703,"longitude":-81.2648696899414,"country":"CA","region":"ON"},"likes":28,"responses":10}
{"name":"Charles Wade","date":"2019-10-15T20:16:13.931629-07:00","comment":"I love camping","location":{"latitude":25.19243049621582,"longitude":55.27839660644531,"country":"AE","region":"DU"},"likes":56,"responses":19}
{"name":"Luna Lara","date":"2019-07-01T20:16:13.931629-07:00","comment":"I hate hiking","location":{"latitude":43.668792724609375,"longitude":-79.38606262207031,"country":"CA","region":"ON"},"likes":77,"responses":6}
{"name":"Anthony Phelps","date":"2019-11-28T20:16:13.931629-08:00","comment":"I really hate tacos","location":{"latitude":49.15534973144531,"longitude":-123.95134735107422,"country":"CA","region":"BC"},"likes":2,"responses":8}
{"name":"Hazel Wang","date":"2020-03-03T20:16:13.931629-08:00","comment":"I love camping","location":{"latitude":43.25615692138672,"longitude":-79.88545227050781,"country":"CA","region":"ON"},"likes":4,"responses":2}
{"name":"Mia Leonard","date":"2019-09-13T20:16:13.931629-07:00","comment":"I hate long walks on the beach","location":{"latitude":51.26942443847656,"longitude":-114.00328063964844,"country":"CA","region":"AB"},"likes":88,"responses":101}
{"name":"David Woodard","date":"2020-02-09T20:16:13.931629-08:00","comment":"I like hiking","location":{"latitude":43.51578903198242,"longitude":-79.69078826904297,"country":"CA","region":"ON"},"likes":18,"responses":3}
{"name":"Kamila Daniels","date":"2019-05-19T20:16:13.931629-07:00","comment":"I hate hiking","location":{"latitude":49.06125259399414,"longitude":-122.8123550415039,"country":"CA","region":"BC"},"likes":2,"responses":2}
{"name":"Arianna Benitez","date":"2019-07-29T20:16:13.931629-07:00","comment":"I like camping","location":{"latitude":45.34550476074219,"longitude":-80.00667572021484,"country":"CA","region":"ON"},"likes":11,"responses":52}
{"name":"Miguel Torres","date":"2020-02-01T20:16:13.931629-08:00","comment":"I like skiing","location":{"latitude":49.06138610839844,"longitude":-122.38070678710938,"country":"CA","region":"BC"},"likes":1,"responses":81}
{"name":"James Glover","date":"2019-05-12T20:16:13.931629-07:00","comment":"I like hiking","location":{"latitude":43.48740005493164,"longitude":-79.71824645996094,"country":"CA","region":"ON"},"likes":1,"responses":7}
{"name":"Carlos Dominguez","date":"2019-04-26T20:16:13.931629-07:00","comment":"I like hiking","location":{"latitude":51.09574890136719,"longitude":-114.14049530029297,"country":"CA","region":"AB"},"likes":4,"responses":26}
{"name":"Alexander Case","date":"2019-07-14T20:16:13.931629-07:00","comment":"I love long walks on the beach","location":{"latitude":24.991559982299805,"longitude":55.09347915649414,"country":"AE","region":"DU"},"likes":7,"responses":30}
{"name":"Katherine Todd","date":"2019-03-23T20:16:13.931629-07:00","comment":"I hate hiking","location":{"latitude":49.220970153808594,"longitude":-122.66021728515625,"country":"CA","region":"BC"},"likes":60,"responses":1}
{"name":"Mackenzie Daugherty","date":"2019-10-14T20:16:13.931629-07:00","comment":"I like tacos","location":{"latitude":49.291263580322266,"longitude":-123.13545227050781,"country":"CA","region":"BC"},"likes":63,"responses":27}
{"name":"Callie Hudson","date":"2019-11-11T20:16:13.931629-08:00","comment":"I think I might like skiing","location":{"latitude":50.951168060302734,"longitude":-114.00151824951172,"country":"CA","region":"AB"},"likes":20,"responses":17}
{"name":"Aiden Davenport","date":"2020-01-08T20:16:13.931629-08:00","comment":"I really hate long walks on the beach","location":{"latitude":49.033409118652344,"longitude":-122.80081939697266,"country":"CA","region":"BC"},"likes":48,"responses":16}
{"name":"Alyssa Mccall","date":"2019-11-25T20:16:13.931629-08:00","comment":"Maybe I like camping","location":{"latitude":43.66241455078125,"longitude":-79.39532470703125,"country":"CA","region":"ON"},"likes":3,"responses":2}
{"name":"Autumn Becker","date":"2019-10-24T20:16:13.931629-07:00","comment":"I love long walks on the beach","location":{"latitude":45.33468246459961,"longitude":-75.72692108154297,"country":"CA","region":"ON"},"likes":37,"responses":17}
{"name":"Zoey Spears","date":"2019-04-01T20:16:13.931629-07:00","comment":"I really hate hiking","location":{"latitude":49.276912689208984,"longitude":-122.85893249511719,"country":"CA","region":"BC"},"likes":5,"responses":4}
{"name":"Christopher Mcguire","date":"2019-03-20T20:16:13.931629-07:00","comment":"I like ice cream","location":{"latitude":43.78868865966797,"longitude":-79.5533447265625,"country":"CA","region":"ON"},"likes":4,"responses":10}
{"name":"Asher Raymond","date":"2019-08-31T20:16:13.931629-07:00","comment":"Maybe I like ice cream","location":{"latitude":42.69762420654297,"longitude":23.322284698486328,"country":"BG","region":"23"},"likes":4,"responses":35}
{"name":"Liam Rollins","date":"2019-03-26T20:16:13.931629-07:00","comment":"I like camping","location":{"latitude":49.06125259399414,"longitude":-122.8123550415039,"country":"CA","region":"BC"},"likes":1,"responses":2}
{"name":"Anna Bass","date":"2019-04-07T20:16:13.931629-07:00","comment":"I love hiking","location":{"latitude":51.09354019165039,"longitude":-115.35652160644531,"country":"CA","region":"AB"},"likes":13,"responses":12}
{"name":"Matilda Mcmahon","date":"2019-03-25T20:16:13.931629-07:00","comment":"I like long walks on the beach","location":{"latitude":43.07898712158203,"longitude":-79.08233642578125,"country":"CA","region":"ON"},"likes":59,"responses":5}
{"name":"Aiden Long","date":"2019-05-17T20:16:13.931629-07:00","comment":"I really hate ice cream","location":{"latitude":48.4471435546875,"longitude":-123.36878967285156,"country":"CA","region":"BC"},"likes":17,"responses":79}
{"name":"Ember Beltran","date":"2019-08-16T20:16:13.931629-07:00","comment":"I really hate skiing","location":{"latitude":45.27513122558594,"longitude":-75.71876525878906,"country":"CA","region":"ON"},"likes":19,"responses":1}
{"name":"Declan Andrade","date":"2019-03-28T20:16:13.931629-07:00","comment":"Maybe I like hiking","location":{"latitude":-34.56881332397461,"longitude":-58.44374465942383,"country":"AR","region":"C"},"likes":22,"responses":3}
{"name":"Evan Carpenter","date":"2020-02-03T20:16:13.931629-08:00","comment":"I like long walks on the beach","location":{"latitude":49.12474060058594,"longitude":-122.7028579711914,"country":"CA","region":"BC"},"likes":2,"responses":2}
{"name":"Dylan Gallagher","date":"2019-12-03T20:16:13.931629-08:00","comment":"I hate long walks on the beach","location":{"latitude":24.192689895629883,"longitude":55.65045166015625,"country":"AE","region":"AZ"},"likes":2,"responses":2}
{"name":"Adeline Riggs","date":"2019-06-20T20:16:13.931629-07:00","comment":"I like hiking","location":{"latitude":50.09434127807617,"longitude":-122.99162292480469,"country":"CA","region":"BC"},"likes":16,"responses":1}
{"name":"Marcus Irwin","date":"2019-05-01T20:16:13.931629-07:00","comment":"Maybe I like hiking","location":{"latitude":49.22007369995117,"longitude":-122.6569595336914,"country":"CA","region":"BC"},"likes":20,"responses":23}
{"name":"Liam Ware","date":"2019-08-30T20:16:13.931629-07:00","comment":"I think I might like hiking","location":{"latitude":53.546390533447266,"longitude":-113.48876190185547,"country":"CA","region":"AB"},"likes":15,"responses":5}
{"name":"River Jones","date":"2019-07-24T20:16:13.931629-07:00","comment":"I like ice cream","location":{"latitude":50.39167785644531,"longitude":-105.53749084472656,"country":"CA","region":"SK"},"likes":2,"responses":1}
{"name":"Peyton Rodgers","date":"2019-10-18T20:16:13.931629-07:00","comment":"I love hiking","location":{"latitude":25.253259658813477,"longitude":55.332618713378906,"country":"AE","region":"DU"},"likes":144,"responses":144}
{"name":"Liam Wu","date":"2020-01-18T20:16:13.931629-08:00","comment":"Maybe I like hiking","location":{"latitude":48.97877883911133,"longitude":-123.80435180664062,"country":"CA","region":"BC"},"likes":10,"responses":99}
{"name":"Avery Sheppard","date":"2019-05-29T20:16:13.931629-07:00","comment":"I hate long walks on the beach","location":{"latitude":49.276912689208984,"longitude":-122.85893249511719,"country":"CA","region":"BC"},"likes":8,"responses":37}
{"name":"Austin Nichols","date":"2019-09-29T20:16:13.931629-07:00","comment":"I hate camping","location":{"latitude":49.948001861572266,"longitude":-119.42676544189453,"country":"CA","region":"BC"},"likes":17,"responses":27}
{"name":"Gabriella Hooper","date":"2019-12-05T20:16:13.931629-08:00","comment":"I love long walks on the beach","location":{"latitude":43.54987716674805,"longitude":-79.58727264404297,"country":"CA","region":"ON"},"likes":1,"responses":18}
{"name":"Lawrence Santiago","date":"2020-03-05T20:16:13.931629-08:00","comment":"I like skiing","location":{"latitude":43.647308349609375,"longitude":-79.40380859375,"country":"CA","region":"ON"},"likes":14,"responses":3}
{"name":"Wyatt Knapp","date":"2019-12-25T20:16:13.931629-08:00","comment":"I like skiing","location":{"latitude":53.5390510559082,"longitude":-113.4254379272461,"country":"CA","region":"AB"},"likes":2,"responses":4}
{"name":"Morgan Baird","date":"2019-12-08T20:16:13.931629-08:00","comment":"Maybe I like tacos","location":{"latitude":43.914794921875,"longitude":-78.95889282226562,"country":"CA","region":"ON"},"likes":2,"responses":11}
{"name":"Olivia Banks","date":"2020-02-28T20:16:13.931629-08:00","comment":"I like skiing","location":{"latitude":51.06039810180664,"longitude":-114.06289672851562,"country":"CA","region":"AB"},"likes":1,"responses":37}
{"name":"Elizabeth Hardin","date":"2019-10-11T20:16:13.931629-07:00","comment":"I think I might like long walks on the beach","location":{"latitude":-34.54734802246094,"longitude":-58.48594665527344,"country":"AR","region":"C"},"likes":134,"responses":36}
{"name":"Joshua Marshall","date":"2019-09-28T20:16:13.931629-07:00","comment":"I like hiking","location":{"latitude":49.279884338378906,"longitude":-123.10722351074219,"country":"CA","region":"BC"},"likes":106,"responses":132}
{"name":"Ruby Frey","date":"2019-11-25T20:16:13.931629-08:00","comment":"I like hiking","location":{"latitude":43.580257415771484,"longitude":-79.71199798583984,"country":"CA","region":"ON"},"likes":1,"responses":17}
{"name":"Oscar Wilcox","date":"2020-02-17T20:16:13.931629-08:00","comment":"Maybe I like skiing","location":{"latitude":45.420692443847656,"longitude":-75.69912719726562,"country":"CA","region":"ON"},"likes":6,"responses":2}
{"name":"Kaitlyn Baldwin","date":"2019-05-11T20:16:13.931629-07:00","comment":"I hate tacos","location":{"latitude":51.06726837158203,"longitude":-114.08634948730469,"country":"CA","region":"AB"},"likes":42,"responses":2}
{"name":"Aurora Chase","date":"2020-01-10T20:16:13.931629-08:00","comment":"I like hiking","location":{"latitude":49.19110107421875,"longitude":-122.94703674316406,"country":"CA","region":"BC"},"likes":74,"responses":28}
{"name":"Lydia Hogan","date":"2019-03-21T20:16:13.931629-07:00","comment":"I like camping","location":{"latitude":43.8131217956543,"longitude":-79.3987045288086,"country":"CA","region":"ON"},"likes":2,"responses":52}
{"name":"Kameron Randolph","date":"2019-04-30T20:16:13.931629-07:00","comment":"I really hate ice cream","location":{"latitude":25.040630340576172,"longitude":55.12131118774414,"country":"AE","region":"DU"},"likes":1,"responses":11}
{"name":"Jaden Lloyd","date":"2019-06-10T20:16:13.931629-07:00","comment":"Maybe I like tacos","location":{"latitude":45.473785400390625,"longitude":-73.83560180664062,"country":"CA","region":"QC"},"likes":12,"responses":60}
{"name":"Christopher Marshall","date":"2019-06-11T20:16:13.931629-07:00","comment":"I hate hiking","location":{"latitude":49.325618743896484,"longitude":-123.14063262939453,"country":"CA","region":"BC"},"likes":78,"responses":25}
{"name":"Marcos Hart","date":"2020-01-06T20:16:13.931629-08:00","comment":"I like skiing","location":{"latitude":49.27891159057617,"longitude":-123.1212158203125,"country":"CA","region":"BC"},"likes":8,"responses":75}
{"name":"Lincoln Ramirez","date":"2019-08-17T20:16:13.931629-07:00","comment":"I love long walks on the beach","location":{"latitude":43.01028823852539,"longitude":-81.33677673339844,"country":"CA","region":"ON"},"likes":11,"responses":122}
{"name":"Cali Sellers","date":"2019-08-04T20:16:13.931629-07:00","comment":"I really hate ice cream","location":{"latitude":53.409141540527344,"longitude":-117.58637237548828,"country":"CA","region":"AB"},"likes":2,"responses":19}
{"name":"Isaiah Melendez","date":"2019-09-26T20:16:13.931629-07:00","comment":"Maybe I like hiking","location":{"latitude":43.779884338378906,"longitude":-79.41622161865234,"country":"CA","region":"ON"},"likes":21,"responses":126}
{"name":"Adelaide Chang","date":"2019-06-01T20:16:13.931629-07:00","comment":"I like skiing","location":{"latitude":25.075599670410156,"longitude":55.141048431396484,"country":"AE","region":"DU"},"likes":1,"responses":3}
{"name":"Anthony Compton","date":"2019-11-10T20:16:13.931629-08:00","comment":"I like skiing","location":{"latitude":49.2878532409668,"longitude":-123.11540222167969,"country":"CA","region":"BC"},"likes":86,"responses":1}
{"name":"Amelia Donovan","date":"2019-12-24T20:16:13.931629-08:00","comment":"I like ice cream","location":{"latitude":49.825836181640625,"longitude":-97.20157623291016,"country":"CA","region":"MB"},"likes":14,"responses":62}
{"name":"Skylar Sheppard","date":"2019-04-05T20:16:13.931629-07:00","comment":"I love tacos","location":{"latitude":24.4993896484375,"longitude":54.37015151977539,"country":"AE","region":"AZ"},"likes":5,"responses":8}
{"name":"Clara Hebert","date":"2020-01-19T20:16:13.931629-08:00","comment":"I hate tacos","location":{"latitude":43.467742919921875,"longitude":-80.568603515625,"country":"CA","region":"ON"},"likes":1,"responses":1}
{"name":"Mila Robinson","date":"2019-06-22T20:16:13.931629-07:00","comment":"Maybe I like ice cream","location":{"latitude":54.3149299621582,"longitude":-130.32330322265625,"country":"CA","region":"BC"},"likes":120,"responses":87}
{"name":"Camila Gallagher","date":"2019-11-02T20:16:13.931629-07:00","comment":"I love hiking","location":{"latitude":49.11996841430664,"longitude":-122.89212799072266,"country":"CA","region":"BC"},"likes":15,"responses":3}
{"name":"Aria Dennis","date":"2019-10-19T20:16:13.931629-07:00","comment":"Maybe I like long walks on the beach","location":{"latitude":44.33427810668945,"longitude":-79.68618774414062,"country":"CA","region":"ON"},"likes":131,"responses":6}
{"name":"Sophia Vaughn","date":"2019-03-19T20:16:13.931629-07:00","comment":"I like tacos","location":{"latitude":49.050270080566406,"longitude":-122.80086517333984,"country":"CA","region":"BC"},"likes":54,"responses":8}
{"name":"Diego Shannon","date":"2019-11-02T20:16:13.931629-07:00","comment":"I really hate hiking","location":{"latitude":25.254119873046875,"longitude":55.331321716308594,"country":"AE","region":"DU"},"likes":8,"responses":41}
{"name":"Sofia Carlson","date":"2020-02-26T20:16:13.931629-08:00","comment":"I think I might like tacos","location":{"latitude":49.26902389526367,"longitude":-123.1460189819336,"country":"CA","region":"BC"},"likes":2,"responses":30}
{"name":"Austin Mitchell","date":"2019-08-12T20:16:13.931629-07:00","comment":"Maybe I like skiing","location":{"latitude":49.20520782470703,"longitude":-124.00502014160156,"country":"CA","region":"BC"},"likes":58,"responses":7}
{"name":"Melanie Osborn","date":"2019-12-03T20:16:13.931629-08:00","comment":"I hate long walks on the beach","location":{"latitude":43.653465270996094,"longitude":-79.45159149169922,"country":"CA","region":"ON"},"likes":22,"responses":9}
{"name":"Colt Cherry","date":"2019-08-21T20:16:13.931629-07:00","comment":"I like ice cream","location":{"latitude":53.547183990478516,"longitude":-113.51848602294922,"country":"CA","region":"AB"},"likes":4,"responses":1}
{"name":"Mary Nunez","date":"2019-06-16T20:16:13.931629-07:00","comment":"I like ice cream","location":{"latitude":49.191261291503906,"longitude":-123.1293716430664,"country":"CA","region":"BC"},"likes":3,"responses":129}
{"name":"Jackson Maldonado","date":"2020-02-27T20:16:13.931629-08:00","comment":"I really hate tacos","location":{"latitude":25.067859649658203,"longitude":-77.32792663574219,"country":"BS","region":"NS"},