{"name":"Ariel Fritz","date":"2019-09-02T20:16:13.931629-07:00","comment":"I think I might like tacos","location":{"latitude":49.130916595458984,"longitude":-122.3198013305664,"country":"CA","region":"BC"},"likes":4,"responses":78}
{"name":"Evie Hinton","date":"2019-09-18T20:16:13.931629-07:00","comment":"Maybe I like skiing","location":{"latitude":25.225419998168945,"longitude":55.42552185058594,"country":"AE","region":"DU"},"likes":46,"responses":1}
{"name":"Amelia Hensley","date":"2019-06-10T20:16:13.931629-07:00","comment":"I like long walks on the beach","location":{"latitude":43.78602981567383,"longitude":-79.47439575195312,"country":"CA","region":"ON"},"likes":1,"responses":63}
{"name":"Jaxon Steele","date":"2019-06-29T20:16:13.931629-07:00","comment":"I hate hiking","location":{"latitude":43.656429290771484,"longitude":-79.38045501708984,"country":"CA","region":"ON"},"likes":21,"responses":35}
{"name":"Jeremiah Levy","date":"2019-05-31T20:16:13.931629-07:00","comment":"I like long walks on the beach","location":{"latitude":43.66426467895508,"longitude":-79.40036010742188,"country":"CA","region":"ON"},"likes":3,"responses":2}
{"name":"Isabella Duran","date":"2019-04-21T20:16:13.931629-07:00","comment":"I hate skiing","location":{"latitude":26.23253059387207,"longitude":50.536441802978516,"country":"BH","region":"13"},"likes":8,"responses":3}
{"name":"Ember Pace","date":"2019-10-06T20:16:13.931629-07:00","comment":"I like skiing","location":{"latitude":53.478355407714844,"longitude":-113.3711929321289,"country":"CA","region":"AB"},"likes":6,"responses":12}
{"name":"Octavia Ashley","date":"2019-08-22T20:16:13.931629-07:00","comment":"I hate hiking","location":{"latitude":43.49761199951172,"longitude":-79.70751190185547,"country":"CA","region":"ON"},"likes":122,"responses":27}
{"name":"Paige Cochran","date":"2020-02-22T20:16:13.931629-08:00","comment":"I like skiing","location":{"latitude":53.868133544921875,"longitude":-122.77520751953125,"country":"CA","region":"BC"},"likes":5,"responses":9}
{"name":"Melanie Hartman","date":"2019-11-18T20:16:13.931629-08:00","comment":"Maybe I like skiing","location":{"latitude":49.132484436035156,"longitude":-122.84010314941406,"country":"CA","region":"BC"},"likes":1,"responses":2}
{"name":"Maeve Larson","date":"2020-01-07T20:16:13.931629-08:00","comment":"I really hate camping","location":{"latitude":24.214860916137695,"longitude":55.73746109008789,"country":"AE","region":"AZ"},"likes":101,"responses":34}
{"name":"Nora Guerrero","date":"2019-03-21T20:16:13.931629-07:00","comment":"I like hiking","location":{"latitude":53.654685974121094,"longitude":-113.63016510009766,"country":"CA","region":"AB"},"likes":15,"responses":1}
{"name":"Dylan Pierce","date":"2019-05-08T20:16:13.931629-07:00","comment":"I hate tacos","location":{"latitude":51.041908264160156,"longitude":-114.0369644165039,"country":"CA","region":"AB"},"likes":83,"responses":1}
{"name":"Beckham Mcguire","date":"2020-02-21T20:16:13.931629-08:00","comment":"I really hate skiing","location":{"latitude":25.25663948059082,"longitude":55.455848693847656,"country":"AE","region":"DU"},"likes":16,"responses":6}
{"name":"Alayna Fields","date":"2019-06-23T20:16:13.931629-07:00","comment":"I like long walks on the beach","location":{"latitude":51.092750549316406,"longitude":-115.3576889038086,"country":"CA","region":"AB"},"likes":127,"responses":3}
{"name":"Parker Wagner","date":"2020-01-28T20:16:13.931629-08:00","comment":"I hate skiing","location":{"latitude":25.253259658813477,"longitude":55.332618713378906,"country":"AE","region":"DU"},"likes":1,"responses":4}
{"name":"Julian Stokes","date":"2020-02-29T20:16:13.931629-08:00","comment":"I like long walks on the beach","location":{"latitude":50.985416412353516,"longitude":-114.08255767822266,"country":"CA","region":"AB"},"likes":17,"responses":40}
{"name":"Michael Crosby","date":"2019-05-06T20:16:13.931629-07:00","comment":"I think I might like hiking","location":{"latitude":49.279884338378906,"longitude":-123.10722351074219,"country":"CA","region":"BC"},"likes":6,"responses":2}
{"name":"Liam Ford","date":"2019-12-07T20:16:13.931629-08:00","comment":"I like skiing","location":{"latitude":44.231475830078125,"longitude":-76.49263763427734,"country":"CA","region":"ON"},"likes":2,"responses":9}
{"name":"Cora Stark","date":"2019-06-03T20:16:13.931629-07:00","comment":"I love camping","location":{"latitude":49.167537689208984,"longitude":-123.1384048461914,"country":"CA","region":"BC"},"likes":85,"responses":66}
{"name":"Gracie Vazquez","date":"2019-11-11T20:16:13.931629-08:00","comment":"I love tacos","location":{"latitude":43.09047317504883,"longitude":-79.07315826416016,"country":"CA","region":"ON"},"likes":1,"responses":1}
{"name":"Damian Weeks","date":"2019-07-13T20:16:13.931629-07:00","comment":"I hate camping","location":{"latitude":45.51938247680664,"longitude":-73.55545043945312,"country":"CA","region":"QC"},"likes":48,"responses":120}
{"name":"Hadley Gates","date":"2019-12-29T20:16:13.931629-08:00","comment":"I love long walks on the beach","location":{"latitude":24.192689895629883,"longitude":55.65045166015625,"country":"AE","region":"AZ"},"likes":4,"responses":19}
{"name":"Jaxon Wu","date":"2020-02-28T20:16:13.931629-08:00","comment":"I like long walks on the beach","location":{"latitude":43.81681823730469,"longitude":-79.45213317871094,"country":"CA","region":"ON"},"likes":4,"responses":99}
{"name":"Olive Tucker","date":"2020-01-12T20:16:13.931629-08:00","comment":"I like long walks on the beach","location":{"latitude":50.70549392700195,"longitude":-113.97344970703125,"country":"CA","region":"AB"},"likes":6,"responses":4}
{"name":"Lydia Shannon","date":"2019-07-03T20:16:13.931629-07:00","comment":"I love hiking","location":{"latitude":49.26323318481445,"longitude":-123.10699462890625,"country":"CA","region":"BC"},"likes":17,"responses":5}
{"name":"Liam Hawkins","date":"2019-11-12T20:16:13.931629-08:00","comment":"I like skiing","location":{"latitude":53.868133544921875,"longitude":-122.77520751953125,"country":"CA","region":"BC"},"likes":84,"responses":90}
{"name":"Gavin Bird","date":"2019-06-14T20:16:13.931629-07:00","comment":"I like long walks on the beach","location":{"latitude":44.33427810668945,"longitude":-79.68618774414062,"country":"CA","region":"ON"},"likes":66,"responses":20}
{"name":"Rhett Gordon","date":"2019-05-17T20:16:13.931629-07:00","comment":"I love hiking","location":{"latitude":49.30594253540039,"longitude":-123.03716278076172,"country":"CA","region":"BC"},"likes":5,"responses":24}
{"name":"Kaylee Briggs","date":"2019-05-27T20:16:13.931629-07:00","comment":"I love long walks on the beach","location":{"latitude":43.407283782958984,"longitude":-80.5003433227539,"country":"CA","region":"ON"},"likes":3,"responses":109}
{"name":"Tucker Larson","date":"2019-11-22T20:16:13.931629-08:00","comment":"I like hiking","location":{"latitude":51.041656494140625,"longitude":-114.21084594726562,"country":"CA","region":"AB"},"likes":3,"responses":3}
{"name":"Naomi Savage","date":"2019-11-13T20:16:13.931629-08:00","comment":"I hate ice cream","location":{"latitude":49.25791931152344,"longitude":-123.168212890625,"country":"CA","region":"BC"},"likes":41,"responses":144}
{"name":"Hannah Marsh","date":"2019-08-25T20:16:13.931629-07:00","comment":"I hate hiking","location":{"latitude":43.68594741821289,"longitude":-79.62127685546875,"country":"CA","region":"ON"},"likes":1,"responses":2}
{"name":"Kairo Lucas","date":"2019-11-24T20:16:13.931629-08:00","comment":"I like ice cream","location":{"latitude":51.020389556884766,"longitude":-114.1690902709961,"country":"CA","region":"AB"},"likes":30,"responses":22}
{"name":"Mason Sullivan","date":"2019-11-29T20:16:13.931629-08:00","comment":"I really hate camping","location":{"latitude":51.03766632080078,"longitude":-114.07846069335938,"country":"CA","region":"AB"},"likes":1,"responses":43}
{"name":"Dawson Patel","date":"2020-02-05T20:16:13.931629-08:00","comment":"I hate skiing","location":{"latitude":49.12474060058594,"longitude":-122.7028579711914,"country":"CA","region":"BC"},"likes":11,"responses":80}
{"name":"Isabelle Dyer","date":"2019-12-29T20:16:13.931629-08:00","comment":"I like long walks on the beach","location":{"latitude":49.351043701171875,"longitude":-123.25321197509766,"country":"CA","region":"BC"},"likes":15,"responses":2}
{"name":"Ethan Choi","date":"2019-07-21T20:16:13.931629-07:00","comment":"I hate skiing","location":{"latitude":25.253259658813477,"longitude":55.332618713378906,"country":"AE","region":"DU"},"likes":1,"responses":68}
{"name":"Peyton Woodward","date":"2020-02-29T20:16:13.931629-08:00","comment":"Maybe I like skiing","location":{"latitude":45.50600051879883,"longitude":-73.55563354492188,"country":"CA","region":"QC"},"likes":106,"responses":18}
{"name":"Arthur Rollins","date":"2020-01-22T20:16:13.931629-08:00","comment":"Maybe I like tacos","location":{"latitude":49.26313400268555,"longitude":-123.13883972167969,"country":"CA","region":"BC"},"likes":68,"responses":4}
{"name":"Nehemiah Bishop","date":"2019-11-29T20:16:13.931629-08:00","comment":"Maybe I like skiing","location":{"latitude":43.40117645263672,"longitude":-80.32527160644531,"country":"CA","region":"ON"},"likes":54,"responses":23}
{"name":"Malaysia Andrade","date":"2019-11-07T20:16:13.931629-08:00","comment":"I hate hiking","location":{"latitude":43.902957916259766,"longitude":-80.11981964111328,"country":"CA","region":"ON"},"likes":147,"responses":27}
{"name":"Willow Aguilar","date":"2019-12-22T20:16:13.931629-08:00","comment":"I like hiking","location":{"latitude":49.277286529541016,"longitude":-123.11868286132812,"country":"CA","region":"BC"},"likes":27,"responses":31}
{"name":"Easton Andersen","date":"2019-04-25T20:16:13.931629-07:00","comment":"I like camping","location":{"latitude":45.41883087158203,"longitude":-75.70256042480469,"country":"CA","region":"ON"},"likes":7,"responses":28}
{"name":"Zion Mcgee","date":"2019-06-16T20:16:13.931629-07:00","comment":"I love camping","location":{"latitude":44.88759231567383,"longitude":-63.51462936401367,"country":"CA","region":"NS"},"likes":90,"responses":44}
{"name":"Ember Wilson","date":"2020-01-16T20:16:13.931629-08:00","comment":"I really hate camping","location":{"latitude":43.449649810791016,"longitude":-79.75904083251953,"country":"CA","region":"ON"},"likes":80,"responses":14}
{"name":"Emma Walter","date":"2019-06-23T20:16:13.931629-07:00","comment":"I hate hiking","location":{"latitude":49.17086410522461,"longitude":-123.14197540283203,"country":"CA","region":"BC"},"likes":3,"responses":116}
{"name":"Vincent Haynes","date":"2019-06-11T20:16:13.931629-07:00","comment":"I like long walks on the beach","location":{"latitude":43.68149185180664,"longitude":-79.4258041381836,"country":"CA","region":"ON"},"likes":16,"responses":71}
{"name":"Jackson Trujillo","date":"2019-11-12T20:16:13.931629-08:00","comment":"I hate skiing","location":{"latitude":43.728702545166016,"longitude":-79.4184341430664,"country":"CA","region":"ON"},"likes":5,"responses":50}
{"name":"Emelia Rivas","date":"2019-12-16T20:16:13.931629-08:00","comment":"Maybe I like ice cream","location":{"latitude":45.269588470458984,"longitude":-75.7394027709961,"country":"CA","region":"ON"},"likes":63,"responses":1}
{"name":"Adrian Mcneil","date":"2019-04-14T20:16:13.931629-07:00","comment":"I really hate long walks on the beach","location":{"latitude":49.220970153808594,"longitude":-122.66021728515625,"country":"CA","region":"BC"},"likes":94,"responses":28}
{"name":"Ella Marsh","date":"2019-11-07T20:16:13.931629-08:00","comment":"I like skiing","location":{"latitude":44.88759231567383,"longitude":-63.51462936401367,"country":"CA","region":"NS"},"likes":50,"responses":23}
{"name":"Emma Hammond","date":"2019-11-07T20:16:13.931629-08:00","comment":"I think I might like long walks on the beach","location":{"latitude":50.99898147583008,"longitude":-114.07418823242188,"country":"CA","region":"AB"},"likes":60,"responses":31}
{"name":"Pierce Lin","date":"2019-08-30T20:16:13.931629-07:00","comment":"I like skiing","location":{"latitude":51.12419891357422,"longitude":-114.24691772460938,"country":"CA","region":"AB"},"likes":55,"responses":37}
{"name":"Noah Mullins","date":"2019-05-28T20:16:13.931629-07:00","comment":"I like camping","location":{"latitude":51.04815673828125,"longitude":-114.06747436523438,"country":"CA","region":"AB"},"likes":48,"responses":144}
{"name":"Seth Parsons","date":"2019-04-27T20:16:13.931629-07:00","comment":"I like long walks on the beach","location":{"latitude":42.2552490234375,"longitude":-83.00150299072266,"country":"CA","region":"ON"},"likes":29,"responses":40}
{"name":"Jayden Osborne","date":"2019-11-27T20:16:13.931629-08:00","comment":"I love hiking","location":{"latitude":48.22040939331055,"longitude":16.34747314453125,"country":"AT","region":"9"},"likes":53,"responses":110}
{"name":"Messiah Harrington","date":"2019-06-18T20:16:13.931629-07:00","comment":"I like camping","location":{"latitude":49.14947509765625,"longitude":-123.18231201171875,"country":"CA","region":"BC"},"likes":2,"responses":24}
{"name":"Robert Frye","date":"2019-08-23T20:16:13.931629-07:00","comment":"I like skiing","location":{"latitude":49.30594253540039,"longitude":-123.03716278076172,"country":"CA","region":"BC"},"likes":3,"responses":1}
{"name":"Derek Frost","date":"2020-02-03T20:16:13.931629-08:00","comment":"Maybe I like skiing","location":{"latitude":49.231441497802734,"longitude":-123.117431640625,"country":"CA","region":"BC"},"likes":5,"responses":9}
{"name":"Ava Terry","date":"2019-08-16T20:16:13.931629-07:00","comment":"I hate hiking","location":{"latitude":-34.58806228637695,"longitude":-58.40978240966797,"country":"AR","region":"C"},"likes":45,"responses":1}
{"name":"Arjun Nguyen","date":"2019-06-29T20:16:13.931629-07:00","comment":"I really hate camping","location":{"latitude":42.255775451660156,"longitude":-82.96358489990234,"country":"CA","region":"ON"},"likes":37,"responses":6}
{"name":"Isabella Preston","date":"2019-06-13T20:16:13.931629-07:00","comment":"I hate ice cream","location":{"latitude":50.679054260253906,"longitude":-120.27518463134766,"country":"CA","region":"BC"},"likes":80,"responses":112}
{"name":"Sebastian Barry","date":"2019-12-03T20:16:13.931629-08:00","comment":"I like skiing","location":{"latitude":56.72447967529297,"longitude":-111.37337493896484,"country":"CA","region":"AB"},"likes":25,"responses":19}
{"name":"Jude Copeland","date":"2020-03-03T20:16:13.931629-08:00","comment":"I like long walks on the beach","location":{"latitude":49.17239761352539,"longitude":-123.13597869873047,"country":"CA","region":"BC"},"likes":20,"responses":3}
{"name":"Thomas Kirby","date":"2019-05-01T20:16:13.931629-07:00","comment":"I like long walks on the beach","location":{"latitude":43.580257415771484,"longitude":-79.71199798583984,"country":"CA","region":"ON"},"likes":12,"responses":2}
{"name":"Cataleya English","date":"2019-10-02T20:16:13.931629-07:00","comment":"I really hate skiing","location":{"latitude":49.2611198425293,"longitude":-123.11563873291016,"country":"CA","region":"BC"},"likes":43,"responses":36}
{"name":"Charlotte Bright","date":"2019-08-21T20:16:13.931629-07:00","comment":"I like camping","location":{"latitude":43.66541290283203,"longitude":-79.40995025634766,"country":"CA","region":"ON"},"likes":6,"responses":1}
{"name":"Kaleb Garner","date":"2019-05-30T20:16:13.931629-07:00","comment":"I like hiking","location":{"latitude":49.93822479248047,"longitude":-97.19698333740234,"country":"CA","region":"MB"},"likes":70,"responses":6}
{"name":"Corbin Lane","date":"2019-07-24T20:16:13.931629-07:00","comment":"I like hiking","location":{"latitude":45.35673141479492,"longitude":-75.65583038330078,"country":"CA","region":"ON"},"likes":68,"responses":125}
{"name":"Kane Lawson","date":"2019-04-06T20:16:13.931629-07:00","comment":"I hate skiing","location":{"latitude":49.28387451171875,"longitude":-122.82792663574219,"country":"CA","region":"BC"},"likes":83,"responses":28}
{"name":"Sebastian Pace","date":"2019-10-17T20:16:13.931629-07:00","comment":"I like camping","location":{"latitude":26.234920501708984,"longitude":50.55458068847656,"country":"BH","region":"13"},"likes":87,"responses":92}
{"name":"Cooper Young","date":"2019-05-13T20:16:13.931629-07:00","comment":"I love skiing","location":{"latitude":53.60105514526367,"longitude":-113.42273712158203,"country":"CA","region":"AB"},"likes":1,"responses":1}
{"name":"Emma Walters","date":"2020-01-22T20:16:13.931629-08:00","comment":"I like skiing","location":{"latitude":53.5658073425293,"longitude":-113.52088165283203,"country":"CA","region":"AB"},"likes":41,"responses":4}
{"name":"Eli Allison","date":"2019-09-11T20:16:13.931629-07:00","comment":"I like skiing","location":{"latitude":49.736568450927734,"longitude":-123.13388061523438,"country":"CA","region":"BC"},"likes":57,"responses":103}
{"name":"Gracie Holden","date":"2019-03-12T20:16:13.931629-07:00","comment":"I love skiing","location":{"latitude":25.053546905517578,"longitude":55.171993255615234,"country":"AE","region":"DU"},"likes":22,"responses":3}
{"name":"Sophia Jones","date":"2019-09-28T20:16:13.931629-07:00","comment":"Maybe I like ice cream","location":{"latitude":24.419849395751953,"longitude":54.51047134399414,"country":"AE","region":"AZ"},"likes":9,"responses":7}
{"name":"Benson Cooley","date":"2019-11-10T20:16:13.931629-08:00","comment":"I hate ice cream","location":{"latitude":49.194618225097656,"longitude":-123.17654418945312,"country":"CA","region":"BC"},"likes":6,"responses":88}
{"name":"Adeline Warren","date":"2019-11-20T20:16:13.931629-08:00","comment":"I like hiking","location":{"latitude":49.23206329345703,"longitude":-123.11971282958984,"country":"CA","region":"BC"},"likes":111,"responses":7}
{"name":"Benjamin Leblanc","date":"2020-03-03T20:16:13.931629-08:00","comment":"I like skiing","location":{"latitude":50.914329528808594,"longitude":-114.07328033447266,"country":"CA","region":"AB"},"likes":43,"responses":79}
{"name":"Hudson Gilmore","date":"2019-03-18T20:16:13.931629-07:00","comment":"I like skiing","location":{"latitude":49.282047271728516,"longitude":-123.1185073852539,"country":"CA","region":"BC"},"likes":1,"responses":2}
{"name":"Lily Bullock","date":"2019-08-08T20:16:13.931629-07:00","comment":"I hate skiing","location":{"latitude":44.614620208740234,"longitude":-75.683837890625,"country":"CA","region":"ON"},"likes":1,"responses":12}
{"name":"Adrian Barrett","date":"2019-10-08T20:16:13.931629-07:00","comment":"I like tacos","location":{"latitude":48.46150588989258,"longitude":-123.29615020751953,"country":"CA","region":"BC"},"likes":11,"responses":13}
{"name":"Lorenzo Richards","date":"2019-08-07T20:16:13.931629-07:00","comment":"I like long walks on the beach","location":{"latitude":49.176902770996094,"longitude":-122.86666107177734,"country":"CA","region":"BC"},"likes":137,"responses":1}
{"name":"Derrick Bridges","date":"2019-04-19T20:16:13.931629-07:00","comment":"I hate hiking","location":{"latitude":49.265567779541016,"longitude":-123.13816833496094,"country":"CA","region":"BC"},"likes":16,"responses":1}
{"name":"Josephine Rowland","date":"2019-03-23T20:16:13.931629-07:00","comment":"I like long walks on the beach","location":{"latitude":49.279544830322266,"longitude":-122.82813262939453,"country":"CA","region":"BC"},"likes":51,"responses":76}
{"name":"Joshua Hebert","date":"2019-03-14T20:16:13.931629-07:00","comment":"I hate hiking","location":{"latitude":49.284881591796875,"longitude":-123.11553955078125,"country":"CA","region":"BC"},"likes":3,"responses":6}
{"name":"Wyatt Manning","date":"2020-03-03T20:16:13.931629-08:00","comment":"I like skiing","location":{"latitude":44.26347351074219,"longitude":-76.49800872802734,"country":"CA","region":"ON"},"likes":16,"responses":1}
{"name":"Zaiden Montgomery","date":"2019-09-03T20:16:13.931629-07:00","comment":"I like camping","location":{"latitude":43.88399887084961,"longitude":-79.44107055664062,"country":"CA","region":"ON"},"likes":1,"responses":59}
{"name":"Russell Cameron","date":"2019-10-10T20:16:13.931629-07:00","comment":"I like hiking","location":{"latitude":49.10641860961914,"longitude":-122.66260528564453,"country":"CA","region":"BC"},"likes":4,"responses":40}
{"name":"Austin Hansen","date":"2019-05-17T20:16:13.931629-07:00","comment":"I hate camping","location":{"latitude":43.70071792602539,"longitude":-79.42745208740234,"country":"CA","region":"ON"},"likes":2,"responses":6}
{"name":"Amir Hall","date":"2019-09-17T20:16:13.931629-07:00","comment":"I like skiing","location":{"latitude":48.44234848022461,"longitude":-123.51095581054688,"country":"CA","region":"BC"},"likes":51,"responses":28}
{"name":"Maria Alvarez","date":"2020-02-03T20:16:13.931629-08:00","comment":"I like camping","location":{"latitude":25.252574920654297,"longitude":55.3539924621582,"country":"AE","region":"DU"},"likes":25,"responses":3}
{"name":"Silas Russell","date":"2019-04-02T20:16:13.931629-07:00","comment":"I like hiking","location":{"latitude":53.57133865356445,"longitude":-113.4667739868164,"country":"CA","region":"AB"},"likes":33,"responses":6}
{"name":"Callie Liu","date":"2019-08-13T20:16:13.931629-07:00","comment":"I like tacos","location":{"latitude":49.26594543457031,"longitude":-122.77531433105469,"country":"CA","region":"BC"},"likes":6,"responses":11}
{"name":"Dahlia Cisneros","date":"2019-08-07T20:16:13.931629-07:00","comment":"I like skiing","location":{"latitude":49.16366195678711,"longitude":-122.80064392089844,"country":"CA","region":"BC"},"likes":2,"responses":9}
{"name":"Patrick Hampton","date":"2019-08-02T20:16:13.931629-07:00","comment":"Maybe I like camping","location":{"latitude":46.76841354370117,"longitude":-71.2867202758789,"country":"CA","region":"QC"},"likes":21,"responses":127}
{"name":"Camila Carroll","date":"2019-03-26T20:16:13.931629-07:00","comment":"I think I might like hiking","location":{"latitude":49.2273063659668,"longitude":-122.99943542480469,"country":"CA","region":"BC"},"likes":101,"responses":29}
{"name":"Teagan Joyce","date":"2019-04-29T20:16:13.931629-07:00","comment":"I like skiing","location":{"latitude":49.273372650146484,"longitude":-123.12002563476562,"country":"CA","region":"BC"},"likes":15,"responses":6}
{"name":"Leo Garrett","date":"2019-04-22T20:16:13.931629-07:00","comment":"I like hiking","location":{"latitude":49.484474182128906,"longitude":-119.58708190917969,"country":"CA","region":"BC"},"likes":8,"responses":16}
{"name":"Nicole Sheppard","date":"2019-06-21T20:16:13.931629-07:00","comment":"I like tacos","location":{"latitude":49.23445510864258,"longitude":-123.16056823730469,"country":"CA","region":"BC"},"likes":2,"responses":28}
{"name":"Winter Ballard","date":"2020-01-09T20:16:13.931629-08:00","comment":"I love camping","location":{"latitude":50.401920318603516,"longitude":-104.61914825439453,"country":"CA","region":"SK"},"likes":36,"responses":54}
{"name":"Fiona Morales","date":"2019-03-19T20:16:13.931629-07:00","comment":"I like skiing","location":{"latitude":45.51938247680664,"longitude":-73.55545043945312,"country":"CA","region":"QC"},"likes":2,"responses":42}
{"name":"Evelyn Lozano","date":"2019-06-26T20:16:13.931629-07:00","comment":"I like hiking","location":{"latitude":49.141658782958984,"longitude":-121.96092224121094,"country":"CA","region":"BC"},"likes":1,"responses":1}
{"name":"Bodhi Cain","date":"2019-11-17T20:16:13.931629-08:00","comment":"I really hate hiking","location":{"latitude":48.42924499511719,"longitude":-123.36653900146484,"country":"CA","region":"BC"},"likes":64,"responses":3}
{"name":"Jayden Ibarra","date":"2019-09-04T20:16:13.931629-07:00","comment":"I hate hiking","location":{"latitude":45.40182876586914,"longitude":-75.70997619628906,"country":"CA","region":"ON"},"likes":48,"responses":1}
{"name":"Tristan Leonard","date":"2019-09-01T20:16:13.931629-07:00","comment":"I like tacos","location":{"latitude":43.593048095703125,"longitude":-79.64215850830078,"country":"CA","region":"ON"},"likes":1,"responses":1}
{"name":"Liam Peck","date":"2019-12-23T20:16:13.931629-08:00","comment":"I love skiing","location":{"latitude":51.01484680175781,"longitude":-114.16737365722656,"country":"CA","region":"AB"},"likes":29,"responses":29}
{"name":"Zachary Riddle","date":"2020-02-25T20:16:13.931629-08:00","comment":"I like hiking","location":{"latitude":43.68149185180664,"longitude":-79.4258041381836,"country":"CA","region":"ON"},"likes":8,"responses":9}
{"name":"Jayden Silva","date":"2019-05-24T20:16:13.931629-07:00","comment":"I hate hiking","location":{"latitude":53.547183990478516,"longitude":-113.51848602294922,"country":"CA","region":"AB"},"likes":74,"responses":3}
{"name":"Millie Reid","date":"2019-10-06T20:16:13.931629-07:00","comment":"Maybe I like camping","location":{"latitude":53.91092300415039,"longitude":-122.7829360961914,"country":"CA","region":"BC"},"likes":60,"responses":21}
{"name":"Charlotte Medina","date":"2019-03-24T20:16:13.931629-07:00","comment":"I like long walks on the beach","location":{"latitude":43.70518493652344,"longitude":-79.37476348876953,"country":"CA","region":"ON"},"likes":35,"responses":1}
{"name":"Penelope Christian","date":"2019-10-05T20:16:13.931629-07:00","comment":"I think I might like camping","location":{"latitude":50.02891540527344,"longitude":-125.24971008300781,"country":"CA","region":"BC"},"likes":61,"responses":5}
{"name":"Hunter Hansen","date":"2019-08-27T20:16:13.931629-07:00","comment":"I hate ice cream","location":{"latitude":43.407283782958984,"longitude":-80.5003433227539,"country":"CA","region":"ON"},"likes":3,"responses":3}
{"name":"Jeremiah Valenzuela","date":"2020-01-24T20:16:13.931629-08:00","comment":"I like long walks on the beach","location":{"latitude":49.871124267578125,"longitude":-97.15347290039062,"country":"CA","region":"MB"},"likes":9,"responses":80}
{"name":"Alayna Whitehead","date":"2019-03-15T20:16:13.931629-07:00","comment":"I hate hiking","location":{"latitude":43.65346145629883,"longitude":-79.42643737792969,"country":"CA","region":"ON"},"likes":15,"responses":39}
{"name":"Declan Fields","date":"2019-11-28T20:16:13.931629-08:00","comment":"I like skiing","location":{"latitude":43.650733947753906,"longitude":-79.38752746582031,"country":"CA","region":"ON"},"likes":7,"responses":38}
{"name":"Joshua Stafford","date":"2020-01-12T20:16:13.931629-08:00","comment":"I hate camping","location":{"latitude":43.49761199951172,"longitude":-79.70751190185547,"country":"CA","region":"ON"},"likes":18,"responses":13}
{"name":"Mohamed Hamilton","date":"2019-10-22T20:16:13.931629-07:00","comment":"I hate skiing","location":{"latitude":43.84494400024414,"longitude":-79.47059631347656,"country":"CA","region":"ON"},"likes":24,"responses":138}
{"name":"Amelia Harrington","date":"2020-02-17T20:16:13.931629-08:00","comment":"I like skiing","location":{"latitude":53.62312698364258,"longitude":-113.60504913330078,"country":"CA","region":"AB"},"likes":14,"responses":88}
{"name":"James Holt","date":"2019-04-25T20:16:13.931629-07:00","comment":"I like camping","location":{"latitude":45.3829345703125,"longitude":-75.69891357421875,"country":"CA","region":"ON"},"likes":3,"responses":22}
{"name":"Juliette Chen","date":"2019-10-07T20:16:13.931629-07:00","comment":"I really hate long walks on the beach","location":{"latitude":49.195308685302734,"longitude":-123.177978515625,"country":"CA","region":"BC"},"likes":14,"responses":1}
{"name":"Mason Sherman","date":"2020-02-23T20:16:13.931629-08:00","comment":"I hate long walks on the beach","location":{"latitude":49.324012756347656,"longitude":-123.10990905761719,"country":"CA","region":"BC"},"likes":34,"responses":1}
{"name":"Alayna Perkins","date":"2019-10-27T20:16:13.931629-07:00","comment":"I like camping","location":{"latitude":51.014259338378906,"longitude":-114.14080047607422,"country":"CA","region":"AB"},"likes":5,"responses":20}
{"name":"Nathan Malone","date":"2019-05-15T20:16:13.931629-07:00","comment":"I like tacos","location":{"latitude":22.278520584106445,"longitude":114.16087341308594,"country":"CN","region":"91"},"likes":4,"responses":3}
{"name":"Carter Fuller","date":"2019-09-25T20:16:13.931629-07:00","comment":"I like long walks on the beach","location":{"latitude":49.85834884643555,"longitude":-97.26382446289062,"country":"CA","region":"MB"},"likes":3,"responses":1}
{"name":"Brayden Howell","date":"2019-11-19T20:16:13.931629-08:00","comment":"I like long walks on the beach","location":{"latitude":43.09323501586914,"longitude":-79.06947326660156,"country":"CA","region":"ON"},"likes":13,"responses":2}
{"name":"Kenzie Potter","date":"2019-04-17T20:16:13.931629-07:00","comment":"I like hiking","location":{"latitude":22.283939361572266,"longitude":114.15818786621094,"country":"CN","region":"91"},"likes":40,"responses":14}
{"name":"Lillian Schultz","date":"2019-08-16T20:16:13.931629-07:00","comment":"I love skiing","location":{"latitude":50.145355224609375,"longitude":-96.87305450439453,"country":"CA","region":"MB"},"likes":121,"responses":24}
{"name":"Cameron Carey","date":"2019-04-11T20:16:13.931629-07:00","comment":"Maybe I like hiking","location":{"latitude":49.287567138671875,"longitude":-123.11988067626953,"country":"CA","region":"BC"},"likes":133,"responses":52}
{"name":"Archer Simmons","date":"2019-10-17T20:16:13.931629-07:00","comment":"I like ice cream","location":{"latitude":43.63981628417969,"longitude":-79.41959381103516,"country":"CA","region":"ON"},"likes":12,"responses":46}
{"name":"Paislee Simon","date":"2019-09-09T20:16:13.931629-07:00","comment":"I really hate skiing","location":{"latitude":49.167537689208984,"longitude":-123.1384048461914,"country":"CA","region":"BC"},"likes":23,"responses":118}
{"name":"Lillian Rosales","date":"2019-09-18T20:16:13.931629-07:00","comment":"I like hiking","location":{"latitude":42.28599548339844,"longitude":-83.05680847167969,"country":"CA","region":"ON"},"likes":37,"responses":1}
{"name":"Emma Quinn","date":"2019-10-06T20:16:13.931629-07:00","comment":"I hate skiing","location":{"latitude":49.272457122802734,"longitude":-123.15481567382812,"country":"CA","region":"BC"},"likes":37,"responses":6}
{"name":"Dylan Brock","date":"2019-11-18T20:16:13.931629-08:00","comment":"I hate skiing","location":{"latitude":43.407283782958984,"longitude":-80.5003433227539,"country":"CA","region":"ON"},"likes":8,"responses":2}
{"name":"Colton Terrell","date":"2019-05-16T20:16:13.931629-07:00","comment":"I like skiing","location":{"latitude":51.16342544555664,"longitude":-114.12728118896484,"country":"CA","region":"AB"},"likes":1,"responses":8}
{"name":"Arianna Lester","date":"2019-07-28T20:16:13.931629-07:00","comment":"Maybe I like hiking","location":{"latitude":49.19404220581055,"longitude":-123.18133544921875,"country":"CA","region":"BC"},"likes":98,"responses":123}
{"name":"Elizabeth Donaldson","date":"2019-06-19T20:16:13.931629-07:00","comment":"I hate long walks on the beach","location":{"latitude":51.10497283935547,"longitude":-114.16084289550781,"country":"CA","region":"AB"},"likes":1,"responses":2}
{"name":"Blakely Stephens","date":"2019-11-26T20:16:13.931629-08:00","comment":"I hate hiking","location":{"latitude":48.20762634277344,"longitude":16.367094039916992,"country":"AT","region":"9"},"likes":1,"responses":21}
{"name":"Miguel Richardson","date":"2019-10-22T20:16:13.931629-07:00","comment":"Maybe I like long walks on the beach","location":{"latitude":45.45740509033203,"longitude":-75.49757385253906,"country":"CA","region":"ON"},"likes":6,"responses":44}
{"name":"Mark Hoffman","date":"2019-09-27T20:16:13.931629-07:00","comment":"I like ice cream","location":{"latitude":49.16913986206055,"longitude":-121.95365142822266,"country":"CA","region":"BC"},"likes":1,"responses":26}
{"name":"Lincoln Olson","date":"2019-05-29T20:16:13.931629-07:00","comment":"I hate hiking","location":{"latitude":43.59828567504883,"longitude":-79.78361511230469,"country":"CA","region":"ON"},"likes":126,"responses":2}
{"name":"Mackenzie Mccann","date":"2019-03-15T20:16:13.931629-07:00","comment":"Maybe I like long walks on the beach","location":{"latitude":49.69273376464844,"longitude":-112.89179229736328,"country":"CA","region":"AB"},"likes":21,"responses":9}
{"name":"Rhett Carson","date":"2019-06-18T20:16:13.931629-07:00","comment":"I think I might like ice cream","location":{"latitude":53.52534866333008,"longitude":-113.61627197265625,"country":"CA","region":"AB"},"likes":2,"responses":2}
{"name":"Mia Salinas","date":"2019-03-11T20:16:13.931629-07:00","comment":"I like hiking","location":{"latitude":53.54079818725586,"longitude":-113.52702331542969,"country":"CA","region":"AB"},"likes":141,"responses":1}
{"name":"Eleanor Solis","date":"2019-04-30T20:16:13.931629-07:00","comment":"I like hiking","location":{"latitude":49.05027389526367,"longitude":-122.31893920898438,"country":"CA","region":"BC"},"likes":16,"responses":1}
{"name":"Brooklyn Graves","date":"2020-02-19T20:16:13.931629-08:00","comment":"I really hate tacos","location":{"latitude":50.904632568359375,"longitude":-114.05750274658203,"country":"CA","region":"AB"},"likes":1,"responses":40}
{"name":"Sophia Lozano","date":"2019-08-14T20:16:13.931629-07:00","comment":"I like tacos","location":{"latitude":45.269588470458984,"longitude":-75.7394027709961,"country":"CA","region":"ON"},"likes":7,"responses":9}
{"name":"Daniel Hensley","date":"2019-05-16T20:16:13.931629-07:00","comment":"I hate long walks on the beach","location":{"latitude":53.45431137084961,"longitude":-113.42986297607422,"country":"CA","region":"AB"},"likes":140,"responses":18}
{"name":"Bianca Durham","date":"2019-08-06T20:16:13.931629-07:00","comment":"I really hate skiing","location":{"latitude":42.42454147338867,"longitude":25.617935180664062,"country":"BG","region":"02"},"likes":6,"responses":28}
{"name":"Grace Shepard","date":"2019-11-16T20:16:13.931629-08:00","comment":"Maybe I like camping","location":{"latitude":25.19243049621582,"longitude":55.27839660644531,"country":"AE","region":"DU"},"likes":5,"responses":109}
{"name":"Landon Knapp","date":"2019-09-26T20:16:13.931629-07:00","comment":"I really hate hiking","location":{"latitude":53.520904541015625,"longitude":-113.59201049804688,"country":"CA","region":"AB"},"likes":2,"responses":2}
{"name":"Sebastian Armstrong","date":"2019-08-11T20:16:13.931629-07:00","comment":"I really hate skiing","location":{"latitude":45.45729064941406,"longitude":-73.75273132324219,"country":"CA","region":"QC"},"likes":2,"responses":62}
{"name":"Robert Kelly","date":"2019-05-19T20:16:13.931629-07:00","comment":"I like long walks on the beach","location":{"latitude":49.130916595458984,"longitude":-122.3198013305664,"country":"CA","region":"BC"},"likes":2,"responses":16}
{"name":"Joshua Wells","date":"2020-03-04T20:16:13.931629-08:00","comment":"I hate hiking","location":{"latitude":50.11903381347656,"longitude":-122.9565658569336,"country":"CA","region":"BC"},"likes":2,"responses":15}
{"name":"William Davidson","date":"2019-11-21T20:16:13.931629-08:00","comment":"I like long walks on the beach","location":{"latitude":49.85834884643555,"longitude":-97.26382446289062,"country":"CA","region":"MB"},"likes":9,"responses":5}
{"name":"Raegan Baird","date":"2020-01-22T20:16:13.931629-08:00","comment":"Maybe I like long walks on the beach","location":{"latitude":49.13829803466797,"longitude":-122.88909912109375,"country":"CA","region":"BC"},"likes":3,"responses":3}
{"name":"Amber Robles","date":"2019-07-29T20:16:13.931629-07:00","comment":"I hate ice cream","location":{"latitude":55.15617752075195,"longitude":-118.79493713378906,"country":"CA","region":"AB"},"likes":48,"responses":68}
{"name":"Tucker Baker","date":"2019-04-18T20:16:13.931629-07:00","comment":"I like hiking","location":{"latitude":53.547183990478516,"longitude":-113.51848602294922,"country":"CA","region":"AB"},"likes":54,"responses":8}
{"name":"Jayce Juarez","date":"2019-04-30T20:16:13.931629-07:00","comment":"Maybe I like ice cream","location":{"latitude":48.415382385253906,"longitude":-123.35621643066406,"country":"CA","region":"BC"},"likes":5,"responses":3}
{"name":"Lauren Haynes","date":"2019-12-22T20:16:13.931629-08:00","comment":"I love camping","location":{"latitude":50.933868408203125,"longitude":-113.96246337890625,"country":"CA","region":"AB"},"likes":61,"responses":13}
{"name":"Elliot Mccann","date":"2019-07-23T20:16:13.931629-07:00","comment":"I like hiking","location":{"latitude":55.15617752075195,"longitude":-118.79493713378906,"country":"CA","region":"AB"},"likes":7,"responses":6}
{"name":"Micah Petersen","date":"2019-07-14T20:16:13.931629-07:00","comment":"I like long walks on the beach","location":{"latitude":48.20762634277344,"longitude":16.367094039916992,"country":"AT","region":"9"},"likes":18,"responses":1}
{"name":"Jacob Rangel","date":"2020-01-21T20:16:13.931629-08:00","comment":"Maybe I like skiing","location":{"latitude":49.829017639160156,"longitude":-97.10890197753906,"country":"CA","region":"MB"},"likes":8,"responses":2}
{"name":"Addison Russo","date":"2019-10-14T20:16:13.931629-07:00","comment":"I like long walks on the beach","location":{"latitude":49.10242462158203,"longitude":-122.64456176757812,"country":"CA","region":"BC"},"likes":16,"responses":16}
{"name":"Kamryn Sawyer","date":"2019-04-04T20:16:13.931629-07:00","comment":"Maybe I like tacos","location":{"latitude":43.7703742980957,"longitude":-79.18648529052734,"country":"CA","region":"ON"},"likes":2,"responses":12}
{"name":"Vera Henderson","date":"2019-09-11T20:16:13.931629-07:00","comment":"Maybe I like ice cream","location":{"latitude":49.313438415527344,"longitude":-123.07733154296875,"country":"CA","region":"BC"},"likes":3,"responses":34}
{"name":"Samuel Kirk","date":"2020-03-06T20:16:13.931629-08:00","comment":"I hate skiing","location":{"latitude":43.01884078979492,"longitude":-81.31016540527344,"country":"CA","region":"ON"},"likes":8,"responses":1}
{"name":"Michael Ferguson","date":"2019-12-15T20:16:13.931629-08:00","comment":"I like skiing","location":{"latitude":50.283687591552734,"longitude":-119.26861572265625,"country":"CA","region":"BC"},"likes":11,"responses":62}
{"name":"Bethany Reeves","date":"2019-11-16T20:16:13.931629-08:00","comment":"I really hate ice cream","location":{"latitude":45.444091796875,"longitude":-73.44053649902344,"country":"CA","region":"QC"},"likes":139,"responses":51}
{"name":"David Woodward","date":"2019-10-25T20:16:13.931629-07:00","comment":"I really hate camping","location":{"latitude":45.444091796875,"longitude":-73.44053649902344,"country":"CA","region":"QC"},"likes":3,"responses":26}
{"name":"Aubrey Reynolds","date":"2019-08-17T20:16:13.931629-07:00","comment":"I like skiing","location":{"latitude":49.26884841918945,"longitude":-123.000244140625,"country":"CA","region":"BC"},"likes":1,"responses":9}
{"name":"Greyson Esparza","date":"2019-04-23T20:16:13.931629-07:00","comment":"I hate tacos","location":{"latitude":48.20078659057617,"longitude":16.368764877319336,"country":"AT","region":"9"},"likes":19,"responses":3}
{"name":"Jack Boyd","date":"2020-03-07T20:16:13.931629-08:00","comment":"I really hate camping","location":{"latitude":49.051368713378906,"longitude":-122.32391357421875,"country":"CA","region":"BC"},"likes":39,"responses":51}
{"name":"Mateo Keller","date":"2019-07-28T20:16:13.931629-07:00","comment":"I hate long walks on the beach","location":{"latitude":49.7926025390625,"longitude":-97.15664672851562,"country":"CA","region":"MB"},"likes":124,"responses":16}
{"name":"Cecilia Chavez","date":"2020-02-03T20:16:13.931629-08:00","comment":"Maybe I like skiing","location":{"latitude":53.51137924194336,"longitude":-113.67578887939453,"country":"CA","region":"AB"},"likes":26,"responses":15}
{"name":"Ethan Hogan","date":"2019-09-29T20:16:13.931629-07:00","comment":"I hate hiking","location":{"latitude":51.09354019165039,"longitude":-115.35652160644531,"country":"CA","region":"AB"},"likes":3,"responses":1}
{"name":"Luna Armstrong","date":"2019-11-13T20:16:13.931629-08:00","comment":"I hate tacos","location":{"latitude":49.19404220581055,"longitude":-123.18133544921875,"country":"CA","region":"BC"},"likes":67,"responses":61}
{"name":"Leonardo Burch","date":"2019-10-24T20:16:13.931629-07:00","comment":"I like ice cream","location":{"latitude":53.546390533447266,"longitude":-113.48876190185547,"country":"CA","region":"AB"},"likes":15,"responses":53}
{"name":"Lennox Tapia","date":"2019-03-23T20:16:13.931629-07:00","comment":"I hate skiing","location":{"latitude":53.51827621459961,"longitude":-113.49732208251953,"country":"CA","region":"AB"},"likes":16,"responses":2}
{"name":"Milo Webster","date":"2019-10-12T20:16:13.931629-07:00","comment":"I really hate hiking","location":{"latitude":49.190731048583984,"longitude":-122.8462142944336,"country":"CA","region":"BC"},"likes":7,"responses":1}
{"name":"Zoe George","date":"2019-06-12T20:16:13.931629-07:00","comment":"Maybe I like long walks on the beach","location":{"latitude":49.28443908691406,"longitude":-123.10851287841797,"country":"CA","region":"BC"},"likes":144,"responses":21}
{"name":"Daniela Shaffer","date":"2020-02-07T20:16:13.931629-08:00","comment":"I love tacos","location":{"latitude":50.283687591552734,"longitude":-119.26861572265625,"country":"CA","region":"BC"},"likes":5,"responses":116}
{"name":"Bella Sutton","date":"2019-03-18T20:16:13.931629-07:00","comment":"I like skiing","location":{"latitude":52.115234375,"longitude":-106.6200942993164,"country":"CA","region":"SK"},"likes":1,"responses":16}
{"name":"Charlotte Combs","date":"2019-08-02T20:16:13.931629-07:00","comment":"I think I might like hiking","location":{"latitude":43.407283782958984,"longitude":-80.5003433227539,"country":"CA","region":"ON"},"likes":53,"responses":32}
{"name":"Hudson Key","date":"2019-03-28T20:16:13.931629-07:00","comment":"I really hate skiing","location":{"latitude":43.507057189941406,"longitude":-79.83773040771484,"country":"CA","region":"ON"},"likes":6,"responses":130}
{"name":"Valerie Patton","date":"2019-04-06T20:16:13.931629-07:00","comment":"I really hate hiking","location":{"latitude":51.020389556884766,"longitude":-114.1690902709961,"country":"CA","region":"AB"},"likes":9,"responses":15}
{"name":"Zane Mcintosh","date":"2019-07-08T20:16:13.931629-07:00","comment":"I like skiing","location":{"latitude":49.2229118347168,"longitude":-122.91412353515625,"country":"CA","region":"BC"},"likes":1,"responses":2}
{"name":"Jayce Roberts","date":"2019-10-09T20:16:13.931629-07:00","comment":"I like skiing","location":{"latitude":43.45058059692383,"longitude":-79.70333099365234,"country":"CA","region":"ON"},"likes":10,"responses":115}
{"name":"Owen Stanley","date":"2020-03-04T20:16:13.931629-08:00","comment":"I like ice cream","location":{"latitude":45.30883026123047,"longitude":-75.91674041748047,"country":"CA","region":"ON"},"likes":49,"responses":6}
{"name":"Kingston Zamora","date":"2019-06-30T20:16:13.931629-07:00","comment":"I like tacos","location":{"latitude":49.31498718261719,"longitude":-122.954345703125,"country":"CA","region":"BC"},"likes":4,"responses":24}
{"name":"Peyton Brennan","date":"2020-03-06T20:16:13.931629-08:00","comment":"I love ice cream","location":{"latitude":49.69273376464844,"longitude":-112.89179229736328,"country":"CA","region":"AB"},"likes":2,"responses":1}
{"name":"Charles Lin","date":"2019-05-08T20:16:13.931629-07:00","comment":"I hate ice cream","location":{"latitude":49.736568450927734,"longitude":-123.13388061523438,"country":"CA","region":"BC"},"likes":94,"responses":26}
{"name":"Princeton Pennington","date":"2019-10-04T20:16:13.931629-07:00","comment":"I hate hiking","location":{"latitude":49.87198257446289,"longitude":-119.47483825683594,"country":"CA","region":"BC"},"likes":3,"responses":2}
{"name":"Omari Norris","date":"2020-01-06T20:16:13.931629-08:00","comment":"I like camping","location":{"latitude":22.287860870361328,"longitude":114.15220642089844,"country":"CN","region":"91"},"likes":75,"responses":19}
{"name":"Elijah Lang","date":"2019-05-13T20:16:13.931629-07:00","comment":"I like ice cream","location":{"latitude":49.94489669799805,"longitude":-97.15769958496094,"country":"CA","region":"MB"},"likes":14,"responses":30}
{"name":"Harmony Arellano","date":"2020-01-21T20:16:13.931629-08:00","comment":"I like long walks on the beach","location":{"latitude":52.168460845947266,"longitude":-106.63980865478516,"country":"CA","region":"SK"},"likes":3,"responses":57}
{"name":"Caroline Benson","date":"2019-04-30T20:16:13.931629-07:00","comment":"I love ice cream","location":{"latitude":25.074939727783203,"longitude":55.13261032104492,"country":"AE","region":"DU"},"likes":6,"responses":3}
{"name":"Audrey Tate","date":"2019-11-10T20:16:13.931629-08:00","comment":"I hate ice cream","location":{"latitude":44.6488151550293,"longitude":-63.67469787597656,"country":"CA","region":"NS"},"likes":27,"responses":8}
{"name":"Harper Gould","date":"2020-02-13T20:16:13.931629-08:00","comment":"I hate long walks on the beach","location":{"latitude":43.768287658691406,"longitude":-79.41294860839844,"country":"CA","region":"ON"},"likes":1,"responses":25}
{"name":"Eliana Gillespie","date":"2019-10-25T20:16:13.931629-07:00","comment":"I think I might like tacos","location":{"latitude":50.953086853027344,"longitude":-114.06468200683594,"country":"CA","region":"AB"},"likes":1,"responses":2}
{"name":"Amelia Atkins","date":"2020-02-20T20:16:13.931629-08:00","comment":"Maybe I like skiing","location":{"latitude":49.22721862792969,"longitude":-122.99520111083984,"country":"CA","region":"BC"},"likes":140,"responses":3}
{"name":"Julius Copeland","date":"2019-11-06T20:16:13.931629-08:00","comment":"I like tacos","location":{"latitude":51.01484680175781,"longitude":-114.16737365722656,"country":"CA","region":"AB"},"likes":2,"responses":29}
{"name":"Henry Dominguez","date":"2019-09-05T20:16:13.931629-07:00","comment":"Maybe I like skiing","location":{"latitude":45.49699401855469,"longitude":-73.57561492919922,"country":"CA","region":"QC"},"likes":1,"responses":32}
{"name":"Genevieve Gregory","date":"2019-12-18T20:16:13.931629-08:00","comment":"Maybe I like hiking","location":{"latitude":50.95659637451172,"longitude":-114.07009887695312,"country":"CA","region":"AB"},"likes":1,"responses":28}
{"name":"Jada Huffman","date":"2019-06-06T20:16:13.931629-07:00","comment":"I love skiing","location":{"latitude":43.318477630615234,"longitude":-79.91162872314453,"country":"CA","region":"ON"},"likes":5,"responses":19}
{"name":"Elle Berry","date":"2019-08-10T20:16:13.931629-07:00","comment":"Maybe I like camping","location":{"latitude":45.40182876586914,"longitude":-75.70997619628906,"country":"CA","region":"ON"},"likes":1,"responses":2}
{"name":"Harlow Mercado","date":"2019-08-11T20:16:13.931629-07:00","comment":"I like skiing","location":{"latitude":51.10497283935547,"longitude":-114.16084289550781,"country":"CA","region":"AB"},"likes":82,"responses":45}
{"name":"Jackson Solis","date":"2019-12-28T20:16:13.931629-08:00","comment":"Maybe I like hiking","location":{"latitude":53.486061096191406,"longitude":-113.52275085449219,"country":"CA","region":"AB"},"likes":51,"responses":138}
{"name":"Harrison Leblanc","date":"2019-04-07T20:16:13.931629-07:00","comment":"I think I might like ice cream","location":{"latitude":49.284912109375,"longitude":-123.11804962158203,"country":"CA","region":"BC"},"likes":33,"responses":29}
{"name":"Luciana Carlson","date":"2019-04-30T20:16:13.931629-07:00","comment":"I hate camping","location":{"latitude":43.48740005493164,"longitude":-79.71824645996094,"country":"CA","region":"ON"},"likes":31,"responses":113}
{"name":"Cameron Reyes","date":"2019-05-17T20:16:13.931629-07:00","comment":"I like long walks on the beach","location":{"latitude":43.78868865966797,"longitude":-79.5533447265625,"country":"CA","region":"ON"},"likes":31,"responses":2}
{"name":"Ellie Nash","date":"2019-12-12T20:16:13.931629-08:00","comment":"I like hiking","location":{"latitude":45.473785400390625,"longitude":-73.83560180664062,"country":"CA","region":"QC"},"likes":2,"responses":29}
{"name":"Adelyn Quinn","date":"2019-04-03T20:16:13.931629-07:00","comment":"I hate camping","location":{"latitude":54.3149299621582,"longitude":-130.32330322265625,"country":"CA","region":"BC"},"likes":33,"responses":24}
{"name":"Demi Mccarthy","date":"2019-09-24T20:16:13.931629-07:00","comment":"Maybe I like tacos","location":{"latitude":25.401649475097656,"longitude":55.47787094116211,"country":"AE","region":"AJ"},"likes":2,"responses":39}
{"name":"Gabriel Franklin","date":"2019-09-16T20:16:13.931629-07:00","comment":"I love ice cream","location":{"latitude":51.049503326416016,"longitude":-114.06819152832031,"country":"CA","region":"AB"},"likes":12,"responses":1}
{"name":"Conner Gentry","date":"2019-08-21T20:16:13.931629-07:00","comment":"I like hiking","location":{"latitude":50.9305534362793,"longitude":-113.96337890625,"country":"CA","region":"AB"},"likes":65,"responses":1}
{"name":"Amelia Lester","date":"2019-07-04T20:16:13.931629-07:00","comment":"I like tacos","location":{"latitude":48.44563293457031,"longitude":-123.33331298828125,"country":"CA","region":"BC"},"likes":3,"responses":1}
{"name":"Arlo Bird","date":"2019-08-27T20:16:13.931629-07:00","comment":"I like long walks on the beach","location":{"latitude":43.844417572021484,"longitude":-79.56007385253906,"country":"CA","region":"ON"},"likes":25,"responses":112}
{"name":"Zander Hess","date":"2019-09-23T20:16:13.931629-07:00","comment":"I hate camping","location":{"latitude":45.50243377685547,"longitude":-73.57176208496094,"country":"CA","region":"QC"},"likes":59,"responses":3}
{"name":"Jayden Shepherd","date":"2020-03-05T20:16:13.931629-08:00","comment":"I like hiking","location":{"latitude":49.823524475097656,"longitude":-97.08364868164062,"country":"CA","region":"MB"},"likes":16,"responses":16}
{"name":"Lane Hurst","date":"2019-05-12T20:16:13.931629-07:00","comment":"I love camping","location":{"latitude":52.127708435058594,"longitude":-122.13961791992188,"country":"CA","region":"BC"},"likes":1,"responses":2}
{"name":"Emilia Wade","date":"2019-08-04T20:16:13.931629-07:00","comment":"I like hiking","location":{"latitude":51.09354019165039,"longitude":-115.35652160644531,"country":"CA","region":"AB"},"likes":3,"responses":110}
{"name":"Kenzie Cobb","date":"2019-12-18T20:16:13.931629-08:00","comment":"I like skiing","location":{"latitude":51.12601089477539,"longitude":-114.20121765136719,"country":"CA","region":"AB"},"likes":29,"responses":1}
{"name":"Luna Vazquez","date":"2019-07-24T20:16:13.931629-07:00","comment":"I really hate long walks on the beach","location":{"latitude":49.25791931152344,"longitude":-123.168212890625,"country":"CA","region":"BC"},"likes":103,"responses":22}
{"name":"Micah Austin","date":"2019-10-27T20:16:13.931629-07:00","comment":"I like hiking","location":{"latitude":26.26959991455078,"longitude":50.62607955932617,"country":"BH","region":"15"},"likes":11,"responses":29}
{"name":"Corbin Rollins","date":"2019-06-16T20:16:13.931629-07:00","comment":"I like camping","location":{"latitude":45.500221252441406,"longitude":-73.50867462158203,"country":"CA","region":"QC"},"likes":39,"responses":8}
{"name":"Naomi Melendez","date":"2019-09-25T20:16:13.931629-07:00","comment":"I really hate tacos","location":{"latitude":43.647308349609375,"longitude":-79.40380859375,"country":"CA","region":"ON"},"likes":117,"responses":2}
{"name":"Sophia Clay","date":"2019-05-08T20:16:13.931629-07:00","comment":"I really hate camping","location":{"latitude":45.50243377685547,"longitude":-73.57176208496094,"country":"CA","region":"QC"},"likes":11,"responses":52}
{"name":"Owen Allison","date":"2019-05-23T20:16:13.931629-07:00","comment":"I like camping","location":{"latitude":49.21302032470703,"longitude":-122.91887664794922,"country":"CA","region":"BC"},"likes":1,"responses":13}
{"name":"Kylee Townsend","date":"2019-03-20T20:16:13.931629-07:00","comment":"I hate long walks on the beach","location":{"latitude":49.883907318115234,"longitude":-119.47612762451172,"country":"CA","region":"BC"},"likes":129,"responses":10}
{"name":"Tyler Norman","date":"2019-08-07T20:16:13.931629-07:00","comment":"I really hate skiing","location":{"latitude":48.42670440673828,"longitude":-123.3163833618164,"country":"CA","region":"BC"},"likes":14,"responses":5}
{"name":"Kiara Alvarado","date":"2019-03-10T20:16:13.931629-07:00","comment":"I really hate hiking","location":{"latitude":45.2867546081543,"longitude":-75.86772155761719,"country":"CA","region":"ON"},"likes":2,"responses":4}
{"name":"Ellie Randall","date":"2019-11-17T20:16:13.931629-08:00","comment":"I like hiking","location":{"latitude":53.45560073852539,"longitude":-113.51547241210938,"country":"CA","region":"AB"},"likes":43,"responses":79}
{"name":"Ariana Henson","date":"2019-08-05T20:16:13.931629-07:00","comment":"I like tacos","location":{"latitude":23.850048065185547,"longitude":55.527618408203125,"country":"AE","region":"AZ"},"likes":120,"responses":46}
{"name":"Adalynn Mcpherson","date":"2019-10-28T20:16:13.931629-07:00","comment":"I like camping","location":{"latitude":49.8417854309082,"longitude":-124.51882934570312,"country":"CA","region":"BC"},"likes":1,"responses":67}
{"name":"Theodore Cline","date":"2019-10-13T20:16:13.931629-07:00","comment":"I like long walks on the beach","location":{"latitude":24.192689895629883,"longitude":55.65045166015625,"country":"AE","region":"AZ"},"likes":2,"responses":10}
{"name":"Kaylee Henry","date":"2019-08-10T20:16:13.931629-07:00","comment":"Maybe I like skiing","location":{"latitude":49.66657257080078,"longitude":-112.79493713378906,"country":"CA","region":"AB"},"likes":1,"responses":1}
{"name":"Jordyn Foley","date":"2019-06-06T20:16:13.931629-07:00","comment":"I hate hiking","location":{"latitude":43.64683151245117,"longitude":-79.38417053222656,"country":"CA","region":"ON"},"likes":85,"responses":12}
{"name":"Elizabeth Reeves","date":"2019-05-03T20:16:13.931629-07:00","comment":"I really hate camping","location":{"latitude":50.48258972167969,"longitude":-104.61788940429688,"country":"CA","region":"SK"},"likes":117,"responses":2}
{"name":"Cameron Benton","date":"2019-10-24T20:16:13.931629-07:00","comment":"I think I might like hiking","location":{"latitude":24.468690872192383,"longitude":54.33824157714844,"country":"AE","region":"AZ"},"likes":1,"responses":23}
{"name":"Sawyer Castillo","date":"2019-11-01T20:16:13.931629-07:00","comment":"I hate camping","location":{"latitude":45.302711486816406,"longitude":-66.02294921875,"country":"CA","region":"NB"},"likes":34,"responses":14}
{"name":"Nathaniel Mcconnell","date":"2019-09-17T20:16:13.931629-07:00","comment":"I really hate long walks on the beach","location":{"latitude":49.900421142578125,"longitude":-97.07022094726562,"country":"CA","region":"MB"},"likes":3,"responses":65}
{"name":"Elijah Daniel","date":"2019-09-09T20:16:13.931629-07:00","comment":"I think I might like skiing","location":{"latitude":43.664981842041016,"longitude":-79.38050842285156,"country":"CA","region":"ON"},"likes":4,"responses":7}
{"name":"Anthony Richard","date":"2020-01-11T20:16:13.931629-08:00","comment":"I love long walks on the beach","location":{"latitude":49.69273376464844,"longitude":-112.89179229736328,"country":"CA","region":"AB"},"likes":2,"responses":1}
{"name":"Daniel Dean","date":"2019-04-21T20:16:13.931629-07:00","comment":"I like hiking","location":{"latitude":42.31743240356445,"longitude":-83.03915405273438,"country":"CA","region":"ON"},"likes":23,"responses":72}
{"name":"Matthew Krueger","date":"2019-05-31T20:16:13.931629-07:00","comment":"I like ice cream","location":{"latitude":49.276912689208984,"longitude":-122.85893249511719,"country":"CA","region":"BC"},"likes":64,"responses":4}
{"name":"Micah Fletcher","date":"2019-04-12T20:16:13.931629-07:00","comment":"Maybe I like hiking","location":{"latitude":50.90709686279297,"longitude":-114.10901641845703,"country":"CA","region":"AB"},"likes":3,"responses":1}
{"name":"Emma Lamb","date":"2019-03-18T20:16:13.931629-07:00","comment":"I really hate long walks on the beach","location":{"latitude":49.284881591796875,"longitude":-123.11553955078125,"country":"CA","region":"BC"},"likes":1,"responses":33}
{"name":"Eric Ballard","date":"2019-06-27T20:16:13.931629-07:00","comment":"I hate camping","location":{"latitude":53.537452697753906,"longitude":-113.50142669677734,"country":"CA","region":"AB"},"likes":1,"responses":105}
{"name":"Frank Trevino","date":"2019-11-28T20:16:13.931629-08:00","comment":"I like long walks on the beach","location":{"latitude":42.311859130859375,"longitude":-82.94622039794922,"country":"CA","region":"ON"},"likes":2,"responses":54}
{"name":"Carson Moses","date":"2019-09-25T20:16:13.931629-07:00","comment":"I like skiing","location":{"latitude":43.843849182128906,"longitude":-79.40804290771484,"country":"CA","region":"ON"},"likes":1,"responses":2}
{"name":"Easton Houston","date":"2019-11-10T20:16:13.931629-08:00","comment":"I really hate hiking","location":{"latitude":49.23523712158203,"longitude":-123.11571502685547,"country":"CA","region":"BC"},"likes":12,"responses":24}
{"name":"Jonathan Ware","date":"2019-04-24T20:16:13.931629-07:00","comment":"I hate tacos","location":{"latitude":26.211650848388672,"longitude":50.607730865478516,"country":"BH","region":"13"},"likes":12,"responses":3}
{"name":"Ace Adams","date":"2020-02-15T20:16:13.931629-08:00","comment":"I think I might like long walks on the beach","location":{"latitude":49.057960510253906,"longitude":-122.80191802978516,"country":"CA","region":"BC"},"likes":4,"responses":61}
{"name":"Brayden Lynn","date":"2019-08-20T20:16:13.931629-07:00","comment":"I hate hiking","location":{"latitude":49.261268615722656,"longitude":-123.24647521972656,"country":"CA","region":"BC"},"likes":4,"responses":138}
{"name":"Gracie Vincent","date":"2019-09-24T20:16:13.931629-07:00","comment":"I hate skiing","location":{"latitude":53.53028106689453,"longitude":-113.29541778564453,"country":"CA","region":"AB"},"likes":66,"responses":86}
{"name":"Enrique Mclaughlin","date":"2020-01-25T20:16:13.931629-08:00","comment":"Maybe I like skiing","location":{"latitude":43.63962173461914,"longitude":-79.53751373291016,"country":"CA","region":"ON"},"likes":12,"responses":5}
{"name":"Messiah Buck","date":"2019-04-19T20:16:13.931629-07:00","comment":"I think I might like camping","location":{"latitude":48.46925735473633,"longitude":-123.36286926269531,"country":"CA","region":"BC"},"likes":43,"responses":1}
{"name":"Philip French","date":"2019-04-29T20:16:13.931629-07:00","comment":"Maybe I like skiing","location":{"latitude":50.97231674194336,"longitude":-114.09832763671875,"country":"CA","region":"AB"},"likes":1,"responses":5}
{"name":"Ricardo Kaufman","date":"2020-02-27T20:16:13.931629-08:00","comment":"I like hiking","location":{"latitude":51.12419891357422,"longitude":-114.24691772460938,"country":"CA","region":"AB"},"likes":1,"responses":5}
{"name":"Hunter Caldwell","date":"2020-01-22T20:16:13.931629-08:00","comment":"Maybe I like hiking","location":{"latitude":49.160247802734375,"longitude":-122.66716003417969,"country":"CA","region":"BC"},"likes":31,"responses":90}
{"name":"Calvin Lang","date":"2019-06-11T20:16:13.931629-07:00","comment":"I really hate camping","location":{"latitude":43.63689422607422,"longitude":-79.62106323242188,"country":"CA","region":"ON"},"likes":1,"responses":3}
{"name":"Kira Payne","date":"2019-10-12T20:16:13.931629-07:00","comment":"I like tacos","location":{"latitude":53.494232177734375,"longitude":-113.66835021972656,"country":"CA","region":"AB"},"likes":1,"responses":74}
{"name":"Kevin Roy","date":"2019-03-25T20:16:13.931629-07:00","comment":"I hate hiking","location":{"latitude":49.3204231262207,"longitude":-123.07259368896484,"country":"CA","region":"BC"},"likes":2,"responses":1}
{"name":"Evelyn Melendez","date":"2019-11-30T20:16:13.931629-08:00","comment":"I think I might like tacos","location":{"latitude":49.10447311401367,"longitude":-122.72527313232422,"country":"CA","region":"BC"},"likes":1,"responses":2}
{"name":"Kayden Mcfarland","date":"2019-05-14T20:16:13.931629-07:00","comment":"I like long walks on the beach","location":{"latitude":49.495792388916016,"longitude":-119.615234375,"country":"CA","region":"BC"},"likes":10,"responses":1}
{"name":"Liam Giles","date":"2019-04-02T20:16:13.931629-07:00","comment":"I love long walks on the beach","location":{"latitude":51.12419891357422,"longitude":-114.24691772460938,"country":"CA","region":"AB"},"likes":1,"responses":2}
{"name":"Dylan Johnson","date":"2019-11-04T20:16:13.931629-08:00","comment":"I like hiking","location":{"latitude":22.278520584106445,"longitude":114.16087341308594,"country":"CN","region":"91"},"likes":12,"responses":15}
{"name":"Mateo Rhodes","date":"2020-02-02T20:16:13.931629-08:00","comment":"I hate ice cream","location":{"latitude":43.397979736328125,"longitude":-79.74712371826172,"country":"CA","region":"ON"},"likes":1,"responses":21}
{"name":"Jada Holland","date":"2020-02-10T20:16:13.931629-08:00","comment":"I think I might like skiing","location":{"latitude":49.23833465576172,"longitude":-124.05448150634766,"country":"CA","region":"BC"},"likes":5,"responses":1}
{"name":"Caroline Cabrera","date":"2019-03-19T20:16:13.931629-07:00","comment":"I really hate hiking","location":{"latitude":51.081050872802734,"longitude":-113.98423767089844,"country":"CA","region":"AB"},"likes":1,"responses":6}
{"name":"Ariana Christensen","date":"2019-04-04T20:16:13.931629-07:00","comment":"I hate long walks on the beach","location":{"latitude":51.101776123046875,"longitude":-114.07260131835938,"country":"CA","region":"AB"},"likes":46,"responses":24}
{"name":"Morgan Sharp","date":"2019-07-02T20:16:13.931629-07:00","comment":"I like camping","location":{"latitude":54.823265075683594,"longitude":-127.19036102294922,"country":"CA","region":"BC"},"likes":1,"responses":110}
{"name":"Charles Maynard","date":"2020-02-06T20:16:13.931629-08:00","comment":"I like ice cream","location":{"latitude":43.67987823486328,"longitude":-79.61138153076172,"country":"CA","region":"ON"},"likes":52,"responses":97}
{"name":"Cameron Mata","date":"2019-07-10T20:16:13.931629-07:00","comment":"I like long walks on the beach","location":{"latitude":49.2877311706543,"longitude":-123.11331176757812,"country":"CA","region":"BC"},"likes":5,"responses":1}
{"name":"Dylan Benitez","date":"2019-11-01T20:16:13.931629-07:00","comment":"I hate hiking","location":{"latitude":43.82260513305664,"longitude":-79.35059356689453,"country":"CA","region":"ON"},"likes":19,"responses":33}
{"name":"Ellie Gutierrez","date":"2020-01-31T20:16:13.931629-08:00","comment":"I like skiing","location":{"latitude":43.654762268066406,"longitude":-79.37606048583984,"country":"CA","region":"ON"},"likes":100,"responses":64}
{"name":"Delilah Guerrero","date":"2020-02-13T20:16:13.931629-08:00","comment":"I hate camping","location":{"latitude":43.88507843017578,"longitude":-79.37278747558594,"country":"CA","region":"ON"},"likes":1,"responses":2}
{"name":"Ava Hughes","date":"2019-06-10T20:16:13.931629-07:00","comment":"Maybe I like camping","location":{"latitude":49.279544830322266,"longitude":-122.82813262939453,"country":"CA","region":"BC"},"likes":1,"responses":3}
{"name":"Josiah Taylor","date":"2019-08-03T20:16:13.931629-07:00","comment":"I hate camping","location":{"latitude":50.971858978271484,"longitude":-114.0709228515625,"country":"CA","region":"AB"},"likes":23,"responses":24}
{"name":"Isaac Marquez","date":"2019-05-12T20:16:13.931629-07:00","comment":"I hate hiking","location":{"latitude":49.781532287597656,"longitude":-92.8388442993164,"country":"CA","region":"ON"},"likes":1,"responses":4}
{"name":"Joshua Herman","date":"2019-09-15T20:16:13.931629-07:00","comment":"I hate camping","location":{"latitude":53.60105514526367,"longitude":-113.42273712158203,"country":"CA","region":"AB"},"likes":36,"responses":1}
{"name":"Asher Garrison","date":"2020-01-17T20:16:13.931629-08:00","comment":"I hate long walks on the beach","location":{"latitude":52.13016891479492,"longitude":-106.6310043334961,"country":"CA","region":"SK"},"likes":13,"responses":59}
{"name":"Mia Griffith","date":"2019-09-01T20:16:13.931629-07:00","comment":"I hate camping","location":{"latitude":43.67992401123047,"longitude":-79.34051513671875,"country":"CA","region":"ON"},"likes":73,"responses":4}
{"name":"Caroline Singleton","date":"2019-09-01T20:16:13.931629-07:00","comment":"I like hiking","location":{"latitude":49.28557205200195,"longitude":-123.13874816894531,"country":"CA","region":"BC"},"likes":64,"responses":2}
{"name":"Jackson Santos","date":"2019-12-03T20:16:13.931629-08:00","comment":"I love hiking","location":{"latitude":50.09434127807617,"longitude":-122.99162292480469,"country":"CA","region":"BC"},"likes":131,"responses":11}
{"name":"Aurora Brooks","date":"2020-01-23T20:16:13.931629-08:00","comment":"I really hate skiing","location":{"latitude":55.74428939819336,"longitude":-97.8466796875,"country":"CA","region":"MB"},"likes":148,"responses":126}
{"name":"Connor Robles","date":"2019-12-08T20:16:13.931629-08:00","comment":"Maybe I like ice cream","location":{"latitude":49.31678009033203,"longitude":-122.96913146972656,"country":"CA","region":"BC"},"likes":3,"responses":5}
{"name":"Cayden Smith","date":"2020-02-21T20:16:13.931629-08:00","comment":"I like skiing","location":{"latitude":25.21487045288086,"longitude":55.282649993896484,"country":"AE","region":"DU"},"likes":1,"responses":11}
{"name":"Leia Huff","date":"2019-04-11T20:16:13.931629-07:00","comment":"I like hiking","location":{"latitude":50.39167785644531,"longitude":-105.53749084472656,"country":"CA","region":"SK"},"likes":3,"responses":1}
{"name":"Sofia Floyd","date":"2019-11-25T20:16:13.931629-08:00","comment":"I really hate camping","location":{"latitude":49.258628845214844,"longitude":-123.03060150146484,"country":"CA","region":"BC"},"likes":1,"responses":4}
{"name":"Ivan Sweeney","date":"2019-06-28T20:16:13.931629-07:00","comment":"I hate long walks on the beach","location":{"latitude":-34.58983612060547,"longitude":-58.42560958862305,"country":"AR","region":"C"},"likes":32,"responses":1}
{"name":"Jason Lawrence","date":"2019-04-15T20:16:13.931629-07:00","comment":"I hate camping","location":{"latitude":49.325618743896484,"longitude":-123.14063262939453,"country":"CA","region":"BC"},"likes":18,"responses":47}
{"name":"John Fuller","date":"2019-05-13T20:16:13.931629-07:00","comment":"I love camping","location":{"latitude":43.772212982177734,"longitude":-79.32112121582031,"country":"CA","region":"ON"},"likes":1,"responses":2}
{"name":"Oliver Ritter","date":"2019-12-09T20:16:13.931629-08:00","comment":"Maybe I like hiking","location":{"latitude":53.445159912109375,"longitude":-113.49102783203125,"country":"CA","region":"AB"},"likes":1,"responses":4}
{"name":"Troy Cobb","date":"2019-07-29T20:16:13.931629-07:00","comment":"I really hate ice cream","location":{"latitude":51.041908264160156,"longitude":-114.0369644165039,"country":"CA","region":"AB"},"likes":13,"responses":47}
{"name":"Jonah Sweeney","date":"2020-02-11T20:16:13.931629-08:00","comment":"I like long walks on the beach","location":{"latitude":43.678016662597656,"longitude":-79.3902359008789,"country":"CA","region":"ON"},"likes":138,"responses":30}
{"name":"Aubrey Evans","date":"2019-08-23T20:16:13.931629-07:00","comment":"I love ice cream","location":{"latitude":53.60063552856445,"longitude":-113.48999786376953,"country":"CA","region":"AB"},"likes":137,"responses":57}
{"name":"Emma Thornton","date":"2019-04-19T20:16:13.931629-07:00","comment":"I like tacos","location":{"latitude":49.104610443115234,"longitude":-122.80220031738281,"country":"CA","region":"BC"},"likes":24,"responses":27}
{"name":"Ivy Harvey","date":"2020-02-13T20:16:13.931629-08:00","comment":"Maybe I like hiking","location":{"latitude":25.266826629638672,"longitude":55.31704330444336,"country":"AE","region":"DU"},"likes":1,"responses":2}
{"name":"Matthew Jennings","date":"2019-05-06T20:16:13.931629-07:00","comment":"Maybe I like hiking","location":{"latitude":51.06039810180664,"longitude":-114.06289672851562,"country":"CA","region":"AB"},"likes":1,"responses":11}
{"name":"Jaxon Payne","date":"2019-08-14T20:16:13.931629-07:00","comment":"I think I might like camping","location":{"latitude":49.19872283935547,"longitude":-122.97689819335938,"country":"CA","region":"BC"},"likes":1,"responses":1}
{"name":"Timothy Marks","date":"2019-04-22T20:16:13.931629-07:00","comment":"I like skiing","location":{"latitude":48.446956634521484,"longitude":-123.372314453125,"country":"CA","region":"BC"},"likes":1,"responses":1}
{"name":"Nicolas Wood","date":"2019-07-24T20:16:13.931629-07:00","comment":"I really hate skiing","location":{"latitude":49.33610534667969,"longitude":-123.03758239746094,"country":"CA","region":"BC"},"likes":33,"responses":117}
{"name":"Melanie Alexander","date":"2019-11-16T20:16:13.931629-08:00","comment":"Maybe I like camping","location":{"latitude":50.97231674194336,"longitude":-114.09832763671875,"country":"CA","region":"AB"},"likes":17,"responses":48}
{"name":"Muhammad Ingram","date":"2019-08-29T20:16:13.931629-07:00","comment":"I like tacos","location":{"latitude":49.736568450927734,"longitude":-123.13388061523438,"country":"CA","region":"BC"},"likes":1,"responses":14}
{"name":"Timothy Reed","date":"2019-07-16T20:16:13.931629-07:00","comment":"I like skiing","location":{"latitude":25.225419998168945,"longitude":55.42552185058594,"country":"AE","region":"DU"},"likes":1,"responses":16}
{"name":"Oliver Tapia","date":"2019-05-25T20:16:13.931629-07:00","comment":"I hate ice cream","location":{"latitude":48.42573928833008,"longitude":-123.36539459228516,"country":"CA","region":"BC"},"likes":17,"responses":45}
{"name":"Isaiah Galloway","date":"2019-10-13T20:16:13.931629-07:00","comment":"I like tacos","location":{"latitude":51.13785934448242,"longitude":-114.15765380859375,"country":"CA","region":"AB"},"likes":18,"responses":25}
{"name":"Luke Rowe","date":"2019-12-26T20:16:13.931629-08:00","comment":"I really hate hiking","location":{"latitude":48.2403450012207,"longitude":16.386985778808594,"country":"AT","region":"9"},"likes":13,"responses":41}
{"name":"Joshua Smith","date":"2019-10-30T20:16:13.931629-07:00","comment":"I like tacos","location":{"latitude":24.187990188598633,"longitude":55.687931060791016,"country":"AE","region":"AZ"},"likes":36,"responses":27}
{"name":"Gianna Stone","date":"2020-02-17T20:16:13.931629-08:00","comment":"I think I might like camping","location":{"latitude":50.5721549987793,"longitude":-111.90172576904297,"country":"CA","region":"AB"},"likes":2,"responses":14}
{"name":"Eloise Winters","date":"2020-01-16T20:16:13.931629-08:00","comment":"I really hate hiking","location":{"latitude":25.253740310668945,"longitude":55.303497314453125,"country":"AE","region":"DU"},"likes":30,"responses":2}
{"name":"Damian Santos","date":"2019-12-03T20:16:13.931629-08:00","comment":"I like skiing","location":{"latitude":49.89073181152344,"longitude":-97.14810180664062,"country":"CA","region":"MB"},"likes":12,"responses":4}
{"name":"Kai Deleon","date":"2019-12-23T20:16:13.931629-08:00","comment":"I hate hiking","location":{"latitude":51.06039810180664,"longitude":-114.06289672851562,"country":"CA","region":"AB"},"likes":136,"responses":9}
{"name":"Elijah Krueger","date":"2019-07-14T20:16:13.931629-07:00","comment":"Maybe I like ice cream","location":{"latitude":49.31678009033203,"longitude":-122.96913146972656,"country":"CA","region":"BC"},"likes":31,"responses":10}
{"name":"Jaxon Stevenson","date":"2019-07-31T20:16:13.931629-07:00","comment":"Maybe I like long walks on the beach","location":{"latitude":43.65000534057617,"longitude":-79.3909912109375,"country":"CA","region":"ON"},"likes":6,"responses":1}
{"name":"Carlos Nichols","date":"2019-04-18T20:16:13.931629-07:00","comment":"I really hate ice cream","location":{"latitude":50.145355224609375,"longitude":-96.87305450439453,"country":"CA","region":"MB"},"likes":138,"responses":18}
{"name":"Emily Blackwell","date":"2019-09-29T20:16:13.931629-07:00","comment":"Maybe I like ice cream","location":{"latitude":55.142059326171875,"longitude":-118.80046081542969,"country":"CA","region":"AB"},"likes":2,"responses":16}
{"name":"Jase Fernandez","date":"2020-03-04T20:16:13.931629-08:00","comment":"I love hiking","location":{"latitude":25.191864013671875,"longitude":55.2774772644043,"country":"AE","region":"DU"},"likes":1,"responses":10}
{"name":"Amelia Collier","date":"2019-06-28T20:16:13.931629-07:00","comment":"I hate long walks on the beach","location":{"latitude":49.28557205200195,"longitude":-123.13874816894531,"country":"CA","region":"BC"},"likes":1,"responses":2}
{"name":"Nevaeh Ortiz","date":"2019-07-01T20:16:13.931629-07:00","comment":"I hate long walks on the beach","location":{"latitude":49.033409118652344,"longitude":-122.80081939697266,"country":"CA","region":"BC"},"likes":23,"responses":5}
{"name":"Hannah Gonzales","date":"2019-11-20T20:16:13.931629-08:00","comment":"I hate skiing","location":{"latitude":26.144689559936523,"longitude":50.57902145385742,"country":"BH","region":"14"},"likes":2,"responses":142}
{"name":"Landon Callahan","date":"2019-12-30T20:16:13.931629-08:00","comment":"I really hate skiing","location":{"latitude":25.19239044189453,"longitude":55.27190017700195,"country":"AE","region":"DU"},"likes":43,"responses":8}
{"name":"Gavin Chavez","date":"2019-05-23T20:16:13.931629-07:00","comment":"I think I might like hiking","location":{"latitude":43.483055114746094,"longitude":-79.69617462158203,"country":"CA","region":"ON"},"likes":1,"responses":3}
{"name":"Maddox Sanchez","date":"2019-11-28T20:16:13.931629-08:00","comment":"I think I might like tacos","location":{"latitude":48.19865417480469,"longitude":16.350051879882812,"country":"AT","region":"9"},"likes":3,"responses":143}
{"name":"Peter Hopkins","date":"2020-02-25T20:16:13.931629-08:00","comment":"I like hiking","location":{"latitude":49.256622314453125,"longitude":-122.74720001220703,"country":"CA","region":"BC"},"likes":2,"responses":6}
{"name":"Lucy West","date":"2019-04-27T20:16:13.931629-07:00","comment":"I hate skiing","location":{"latitude":49.3108024597168,"longitude":-123.08385467529297,"country":"CA","region":"BC"},"likes":11,"responses":8}
{"name":"Joshua Atkinson","date":"2019-05-05T20:16:13.931629-07:00","comment":"I love long walks on the beach","location":{"latitude":50.966060638427734,"longitude":-114.07412719726562,"country":"CA","region":"AB"},"likes":4,"responses":15}
{"name":"Willow Taylor","date":"2020-02-18T20:16:13.931629-08:00","comment":"I hate long walks on the beach","location":{"latitude":43.67050552368164,"longitude":-79.38977813720703,"country":"CA","region":"ON"},"likes":9,"responses":68}
{"name":"Nevaeh Mcmillan","date":"2019-11-26T20:16:13.931629-08:00","comment":"I like long walks on the beach","location":{"latitude":24.192689895629883,"longitude":55.65045166015625,"country":"AE","region":"AZ"},"likes":21,"responses":6}
{"name":"Liam Kennedy","date":"2019-08-16T20:16:13.931629-07:00","comment":"I like ice cream","location":{"latitude":50.98362350463867,"longitude":-114.0412368774414,"country":"CA","region":"AB"},"likes":128,"responses":1}
{"name":"Connor Garza","date":"2020-01-01T20:16:13.931629-08:00","comment":"I think I might like tacos","location":{"latitude":45.42118835449219,"longitude":-75.69570922851562,"country":"CA","region":"ON"},"likes":1,"responses":21}
{"name":"Melanie Phillips","date":"2019-07-04T20:16:13.931629-07:00","comment":"I like hiking","location":{"latitude":25.254119873046875,"longitude":55.331321716308594,"country":"AE","region":"DU"},"likes":2,"responses":135}
{"name":"David Bush","date":"2019-06-04T20:16:13.931629-07:00","comment":"Maybe I like camping","location":{"latitude":43.84546661376953,"longitude":-79.38094329833984,"country":"CA","region":"ON"},"likes":17,"responses":143}
{"name":"Kylee Dougherty","date":"2019-12-05T20:16:13.931629-08:00","comment":"I like long walks on the beach","location":{"latitude":49.138919830322266,"longitude":-123.13847351074219,"country":"CA","region":"BC"},"likes":16,"responses":1}
{"name":"Julia Sexton","date":"2019-08-01T20:16:13.931629-07:00","comment":"I love ice cream","location":{"latitude":49.16366195678711,"longitude":-122.80064392089844,"country":"CA","region":"BC"},"likes":22,"responses":1}
{"name":"Piper Chang","date":"2019-08-31T20:16:13.931629-07:00","comment":"I like ice cream","location":{"latitude":43.757999420166016,"longitude":-79.40977478027344,"country":"CA","region":"ON"},"likes":29,"responses":17}
{"name":"Mackenzie Ward","date":"2019-12-22T20:16:13.931629-08:00","comment":"I hate camping","location":{"latitude":49.69838333129883,"longitude":-112.83722686767578,"country":"CA","region":"AB"},"likes":1,"responses":82}
{"name":"Hudson Cantrell","date":"2019-03-11T20:16:13.931629-07:00","comment":"I really hate tacos","location":{"latitude":49.89387130737305,"longitude":-97.1985092163086,"country":"CA","region":"MB"},"likes":5,"responses":31}
{"name":"Zoe Vang","date":"2019-07-26T20:16:13.931629-07:00","comment":"I like skiing","location":{"latitude":49.18730926513672,"longitude":-122.8006362915039,"country":"CA","region":"BC"},"likes":9,"responses":1}
{"name":"Lily Kidd","date":"2019-11-05T20:16:13.931629-08:00","comment":"I really hate skiing","location":{"latitude":49.22569274902344,"longitude":-122.99649810791016,"country":"CA","region":"BC"},"likes":2,"responses":45}
{"name":"Noah Mccormick","date":"2019-05-03T20:16:13.931629-07:00","comment":"I love skiing","location":{"latitude":24.18798828125,"longitude":55.68792724609375,"country":"AE","region":"AZ"},"likes":3,"responses":32}
{"name":"Vincent Frey","date":"2019-05-03T20:16:13.931629-07:00","comment":"I really hate hiking","location":{"latitude":43.86311721801758,"longitude":-79.02132415771484,"country":"CA","region":"ON"},"likes":4,"responses":134}
{"name":"Allison Horton","date":"2019-08-18T20:16:13.931629-07:00","comment":"Maybe I like long walks on the beach","location":{"latitude":49.264339447021484,"longitude":-122.9815673828125,"country":"CA","region":"BC"},"likes":15,"responses":16}
{"name":"Josie Marshall","date":"2019-12-14T20:16:13.931629-08:00","comment":"I really hate camping","location":{"latitude":53.514404296875,"longitude":-113.49732971191406,"country":"CA","region":"AB"},"likes":4,"responses":27}
{"name":"Zayn Best","date":"2019-08-18T20:16:13.931629-07:00","comment":"I hate skiing","location":{"latitude":48.42573928833008,"longitude":-123.36539459228516,"country":"CA","region":"BC"},"likes":1,"responses":2}
{"name":"Jolene Mcdaniel","date":"2019-07-20T20:16:13.931629-07:00","comment":"I like tacos","location":{"latitude":49.28557205200195,"longitude":-123.13874816894531,"country":"CA","region":"BC"},"likes":76,"responses":30}
{"name":"Mackenzie Morrow","date":"2019-07-27T20:16:13.931629-07:00","comment":"I like camping","location":{"latitude":43.659942626953125,"longitude":-79.72569274902344,"country":"CA","region":"ON"},"likes":2,"responses":12}
{"name":"Helena Henson","date":"2019-08-02T20:16:13.931629-07:00","comment":"I hate long walks on the beach","location":{"latitude":49.261268615722656,"longitude":-123.24647521972656,"country":"CA","region":"BC"},"likes":3,"responses":20}
{"name":"Tyler Carney","date":"2020-03-05T20:16:13.931629-08:00","comment":"I like ice cream","location":{"latitude":49.276451110839844,"longitude":-122.7919692993164,"country":"CA","region":"BC"},"likes":62,"responses":47}
{"name":"Noah Velez","date":"2020-01-01T20:16:13.931629-08:00","comment":"I really hate tacos","location":{"latitude":25.074939727783203,"longitude":55.13261032104492,"country":"AE","region":"DU"},"likes":69,"responses":1}
{"name":"Ethan Mckee","date":"2020-01-30T20:16:13.931629-08:00","comment":"I hate camping","location":{"latitude":43.646358489990234,"longitude":-79.3787612915039,"country":"CA","region":"ON"},"likes":27,"responses":2}
{"name":"Elijah Tanner","date":"2019-04-23T20:16:13.931629-07:00","comment":"I love tacos","location":{"latitude":43.66841506958008,"longitude":-79.30794525146484,"country":"CA","region":"ON"},"likes":6,"responses":1}
{"name":"Jaxon Sampson","date":"2019-10-24T20:16:13.931629-07:00","comment":"I like camping","location":{"latitude":49.29161834716797,"longitude":-123.13533020019531,"country":"CA","region":"BC"},"likes":35,"responses":94}
{"name":"Silas Long","date":"2020-01-12T20:16:13.931629-08:00","comment":"I love skiing","location":{"latitude":45.296512603759766,"longitude":-75.89033508300781,"country":"CA","region":"ON"},"likes":7,"responses":7}
{"name":"Cohen Obrien","date":"2019-12-01T20:16:13.931629-08:00","comment":"I like camping","location":{"latitude":43.45756912231445,"longitude":-79.67861938476562,"country":"CA","region":"ON"},"likes":3,"responses":43}
{"name":"Gabriel Reed","date":"2019-06-30T20:16:13.931629-07:00","comment":"I like skiing","location":{"latitude":52.1285285949707,"longitude":-106.66350555419922,"country":"CA","region":"SK"},"likes":7,"responses":14}
{"name":"Jackson Hays","date":"2019-05-09T20:16:13.931629-07:00","comment":"I hate camping","location":{"latitude":50.66520309448242,"longitude":-120.35249328613281,"country":"CA","region":"BC"},"likes":2,"responses":2}
{"name":"Oscar Wells","date":"2020-02-25T20:16:13.931629-08:00","comment":"I really hate ice cream","location":{"latitude":56.238094329833984,"longitude":-120.8472671508789,"country":"CA","region":"BC"},"likes":88,"responses":6}
{"name":"Jacob Richards","date":"2019-09-09T20:16:13.931629-07:00","comment":"I like camping","location":{"latitude":49.25160217285156,"longitude":-123.12725067138672,"country":"CA","region":"BC"},"likes":4,"responses":2}
{"name":"Nora Delgado","date":"2019-05-27T20:16:13.931629-07:00","comment":"I love camping","location":{"latitude":25.25663948059082,"longitude":55.455848693847656,"country":"AE","region":"DU"},"likes":8,"responses":1}
{"name":"Alina Brown","date":"2019-03-27T20:16:13.931629-07:00","comment":"I hate hiking","location":{"latitude":49.30594253540039,"longitude":-123.03716278076172,"country":"CA","region":"BC"},"likes":32,"responses":88}
{"name":"Karson Guzman","date":"2019-11-01T20:16:13.931629-07:00","comment":"I think I might like long walks on the beach","location":{"latitude":49.32426071166992,"longitude":-123.0725326538086,"country":"CA","region":"BC"},"likes":89,"responses":8}
{"name":"Carlos Key","date":"2019-04-07T20:16:13.931629-07:00","comment":"I hate long walks on the beach","location":{"latitude":53.54176712036133,"longitude":-113.93135070800781,"country":"CA","region":"AB"},"likes":2,"responses":142}
{"name":"Lincoln Peck","date":"2019-05-22T20:16:13.931629-07:00","comment":"I really hate ice cream","location":{"latitude":45.49699401855469,"longitude":-73.57561492919922,"country":"CA","region":"QC"},"likes":7,"responses":13}
{"name":"Royce Foley","date":"2019-04-24T20:16:13.931629-07:00","comment":"Maybe I like camping","location":{"latitude":49.50029754638672,"longitude":-119.59322357177734,"country":"CA","region":"BC"},"likes":24,"responses":36}
{"name":"Logan Mosley","date":"2019-09-20T20:16:13.931629-07:00","comment":"I really hate ice cream","location":{"latitude":45.34550476074219,"longitude":-80.00667572021484,"country":"CA","region":"ON"},"likes":75,"responses":28}
{"name":"Charles Sparks","date":"2019-09-05T20:16:13.931629-07:00","comment":"Maybe I like skiing","location":{"latitude":51.07394790649414,"longitude":-113.98452758789062,"country":"CA","region":"AB"},"likes":3,"responses":1}
{"name":"Brandon Elliott","date":"2019-03-26T20:16:13.931629-07:00","comment":"I really hate skiing","location":{"latitude":49.287567138671875,"longitude":-123.11988067626953,"country":"CA","region":"BC"},"likes":1,"responses":1}
{"name":"Robert Livingston","date":"2020-02-19T20:16:13.931629-08:00","comment":"I hate skiing","location":{"latitude":53.5247688293457,"longitude":-113.5306167602539,"country":"CA","region":"AB"},"likes":5,"responses":2}
{"name":"Rhett Rios","date":"2020-02-06T20:16:13.931629-08:00","comment":"I hate long walks on the beach","location":{"latitude":44.614620208740234,"longitude":-75.683837890625,"country":"CA","region":"ON"},"likes":3,"responses":24}
{"name":"Emma Krause","date":"2019-07-03T20:16:13.931629-07:00","comment":"I like long walks on the beach","location":{"latitude":43.397979736328125,"longitude":-79.74712371826172,"country":"CA","region":"ON"},"likes":2,"responses":89}
{"name":"Lorenzo Douglas","date":"2019-09-26T20:16:13.931629-07:00","comment":"I really hate tacos","location":{"latitude":48.4471435546875,"longitude":-123.36878967285156,"country":"CA","region":"BC"},"likes":8,"responses":6}
{"name":"Alexandra Gomez","date":"2019-10-16T20:16:13.931629-07:00","comment":"I hate skiing","location":{"latitude":51.04887771606445,"longitude":-114.06514739990234,"country":"CA","region":"AB"},"likes":50,"responses":5}
{"name":"Ariella Parrish","date":"2019-10-29T20:16:13.931629-07:00","comment":"I hate skiing","location":{"latitude":50.65311813354492,"longitude":-120.37529754638672,"country":"CA","region":"BC"},"likes":12,"responses":124}
{"name":"Eva Espinoza","date":"2019-05-05T20:16:13.931629-07:00","comment":"I hate camping","location":{"latitude":49.2795295715332,"longitude":-122.96721649169922,"country":"CA","region":"BC"},"likes":21,"responses":72}
{"name":"Ryder Lester","date":"2019-09-24T20:16:13.931629-07:00","comment":"I really hate skiing","location":{"latitude":49.263832092285156,"longitude":-122.76681518554688,"country":"CA","region":"BC"},"likes":4,"responses":24}
{"name":"Rylan Stein","date":"2019-07-19T20:16:13.931629-07:00","comment":"I really hate camping","location":{"latitude":45.458396911621094,"longitude":-73.74749755859375,"country":"CA","region":"QC"},"likes":5,"responses":67}
{"name":"Theo Forbes","date":"2019-08-15T20:16:13.931629-07:00","comment":"I think I might like hiking","location":{"latitude":52.12746810913086,"longitude":-106.66649627685547,"country":"CA","region":"SK"},"likes":8,"responses":46}
{"name":"Remi Stein","date":"2019-06-17T20:16:13.931629-07:00","comment":"I think I might like skiing","location":{"latitude":49.895416259765625,"longitude":-97.13945770263672,"country":"CA","region":"MB"},"likes":4,"responses":108}
{"name":"Beckett Ritter","date":"2019-10-14T20:16:13.931629-07:00","comment":"I like ice cream","location":{"latitude":49.264286041259766,"longitude":-123.01375579833984,"country":"CA","region":"BC"},"likes":112,"responses":36}
{"name":"Kali Forbes","date":"2019-12-07T20:16:13.931629-08:00","comment":"I think I might like ice cream","location":{"latitude":43.37423324584961,"longitude":-80.31818389892578,"country":"CA","region":"ON"},"likes":12,"responses":76}
{"name":"Caleb Leach","date":"2019-12-09T20:16:13.931629-08:00","comment":"I really hate hiking","location":{"latitude":43.658748626708984,"longitude":-79.3956298828125,"country":"CA","region":"ON"},"likes":44,"responses":12}
{"name":"Elliott Parrish","date":"2020-02-20T20:16:13.931629-08:00","comment":"I hate tacos","location":{"latitude":48.45972442626953,"longitude":-123.49781799316406,"country":"CA","region":"BC"},"likes":84,"responses":37}
{"name":"Hailey Stevens","date":"2020-02-01T20:16:13.931629-08:00","comment":"I really hate hiking","location":{"latitude":49.16366195678711,"longitude":-122.80064392089844,"country":"CA","region":"BC"},"likes":4,"responses":1}
{"name":"Lena Thompson","date":"2019-09-23T20:16:13.931629-07:00","comment":"I like long walks on the beach","location":{"latitude":43.190162658691406,"longitude":-79.22716522216797,"country":"CA","region":"ON"},"likes":1,"responses":81}
{"name":"Andrew Thomas","date":"2019-11-15T20:16:13.931629-08:00","comment":"I like skiing","location":{"latitude":45.42118835449219,"longitude":-75.69570922851562,"country":"CA","region":"ON"},"likes":1,"responses":1}
{"name":"Elizabeth Booth","date":"2019-11-16T20:16:13.931629-08:00","comment":"I really hate hiking","location":{"latitude":53.46421813964844,"longitude":-113.49309539794922,"country":"CA","region":"AB"},"likes":97,"responses":52}
{"name":"Julia Singh","date":"2019-07-29T20:16:13.931629-07:00","comment":"I like tacos","location":{"latitude":49.2863883972168,"longitude":-123.1208724975586,"country":"CA","region":"BC"},"likes":64,"responses":53}
{"name":"Ali Harris","date":"2019-03-11T20:16:13.931629-07:00","comment":"I really hate skiing","location":{"latitude":49.28035354614258,"longitude":-123.130859375,"country":"CA","region":"BC"},"likes":10,"responses":14}
{"name":"Elizabeth Clayton","date":"2019-04-09T20:16:13.931629-07:00","comment":"Maybe I like hiking","location":{"latitude":45.41609191894531,"longitude":-75.68901062011719,"country":"CA","region":"ON"},"likes":26,"responses":65}
{"name":"Addison Elliott","date":"2019-06-30T20:16:13.931629-07:00","comment":"I hate tacos","location":{"latitude":49.219547271728516,"longitude":-123.04104614257812,"country":"CA","region":"BC"},"likes":11,"responses":8}
{"name":"Justin Wheeler","date":"2020-01-03T20:16:13.931629-08:00","comment":"I like long walks on the beach","location":{"latitude":49.13695526123047,"longitude":-122.84429168701172,"country":"CA","region":"BC"},"likes":94,"responses":50}
{"name":"Dylan Barrett","date":"2019-09-08T20:16:13.931629-07:00","comment":"I hate tacos","location":{"latitude":43.768287658691406,"longitude":-79.41294860839844,"country":"CA","region":"ON"},"likes":7,"responses":3}
{"name":"James Walters","date":"2019-05-06T20:16:13.931629-07:00","comment":"I like long walks on the beach","location":{"latitude":49.110809326171875,"longitude":-121.95623779296875,"country":"CA","region":"BC"},"likes":5,"responses":6}
{"name":"Andrea Harris","date":"2019-10-17T20:16:13.931629-07:00","comment":"I really hate tacos","location":{"latitude":49.82863998413086,"longitude":-97.11031341552734,"country":"CA","region":"MB"},"likes":27,"responses":5}
{"name":"Milan Pace","date":"2019-09-07T20:16:13.931629-07:00","comment":"I really hate hiking","location":{"latitude":48.78617858886719,"longitude":-123.70707702636719,"country":"CA","region":"BC"},"likes":34,"responses":6}
{"name":"Amanda Wright","date":"2019-04-03T20:16:13.931629-07:00","comment":"I like camping","location":{"latitude":45.41609191894531,"longitude":-75.68901062011719,"country":"CA","region":"ON"},"likes":3,"responses":15}
{"name":"Olivia Roberson","date":"2019-06-04T20:16:13.931629-07:00","comment":"I hate tacos","location":{"latitude":45.420692443847656,"longitude":-75.69912719726562,"country":"CA","region":"ON"},"likes":1,"responses":4}
{"name":"Kai Ortiz","date":"2019-10-28T20:16:13.931629-07:00","comment":"I like ice cream","location":{"latitude":25.167890548706055,"longitude":55.22840881347656,"country":"AE","region":"DU"},"likes":2,"responses":104}
{"name":"Enzo Levy","date":"2020-02-04T20:16:13.931629-08:00","comment":"I hate long walks on the beach","location":{"latitude":49.86774444580078,"longitude":-97.25242614746094,"country":"CA","region":"MB"},"likes":11,"responses":1}
{"name":"Ivy Farrell","date":"2020-01-20T20:16:13.931629-08:00","comment":"I really hate hiking","location":{"latitude":51.05984115600586,"longitude":-114.21134185791016,"country":"CA","region":"AB"},"likes":1,"responses":7}
{"name":"Brian Powers","date":"2019-07-09T20:16:13.931629-07:00","comment":"I like long walks on the beach","location":{"latitude":52.168460845947266,"longitude":-106.63980865478516,"country":"CA","region":"SK"},"likes":71,"responses":39}
{"name":"Genesis Nixon","date":"2019-08-20T20:16:13.931629-07:00","comment":"I love long walks on the beach","location":{"latitude":44.012691497802734,"longitude":-79.41307067871094,"country":"CA","region":"ON"},"likes":53,"responses":3}
{"name":"Makenna Gill","date":"2019-04-05T20:16:13.931629-07:00","comment":"Maybe I like tacos","location":{"latitude":49.10447311401367,"longitude":-122.72527313232422,"country":"CA","region":"BC"},"likes":37,"responses":15}
{"name":"Josue Williams","date":"2019-09-05T20:16:13.931629-07:00","comment":"I like camping","location":{"latitude":49.2845458984375,"longitude":-123.1218490600586,"country":"CA","region":"BC"},"likes":1,"responses":22}
{"name":"Penelope Dennis","date":"2019-07-11T20:16:13.931629-07:00","comment":"I really hate tacos","location":{"latitude":50.67171859741211,"longitude":-120.33413696289062,"country":"CA","region":"BC"},"likes":4,"responses":49}
{"name":"Hudson Patrick","date":"2019-09-14T20:16:13.931629-07:00","comment":"I really hate camping","location":{"latitude":43.37423324584961,"longitude":-80.31818389892578,"country":"CA","region":"ON"},"likes":4,"responses":1}
{"name":"Easton Mcmahon","date":"2020-03-02T20:16:13.931629-08:00","comment":"I like camping","location":{"latitude":45.46293258666992,"longitude":-73.8303451538086,"country":"CA","region":"QC"},"likes":3,"responses":1}
{"name":"Olivia Valdez","date":"2019-11-14T20:16:13.931629-08:00","comment":"I hate skiing","location":{"latitude":53.6449089050293,"longitude":-113.62569427490234,"country":"CA","region":"AB"},"likes":120,"responses":128}
{"name":"Jack Galloway","date":"2019-05-15T20:16:13.931629-07:00","comment":"I like long walks on the beach","location":{"latitude":48.97877883911133,"longitude":-123.80435180664062,"country":"CA","region":"BC"},"likes":1,"responses":27}
{"name":"Zoey Hahn","date":"2020-02-17T20:16:13.931629-08:00","comment":"I really hate camping","location":{"latitude":48.97877883911133,"longitude":-123.80435180664062,"country":"CA","region":"BC"},"likes":7,"responses":98}
{"name":"Ella Krause","date":"2019-11-30T20:16:13.931629-08:00","comment":"I really hate long walks on the beach","location":{"latitude":51.049503326416016,"longitude":-114.06819152832031,"country":"CA","region":"AB"},"likes":8,"responses":49}
{"name":"Olivia Donovan","date":"2019-11-16T20:16:13.931629-08:00","comment":"I like skiing","location":{"latitude":45.46639633178711,"longitude":-73.82198333740234,"country":"CA","region":"QC"},"likes":2,"responses":29}
{"name":"Elizabeth Weaver","date":"2020-02-01T20:16:13.931629-08:00","comment":"I like camping","location":{"latitude":25.084243774414062,"longitude":55.150089263916016,"country":"AE","region":"DU"},"likes":59,"responses":6}
{"name":"Madelyn Black","date":"2019-08-27T20:16:13.931629-07:00","comment":"I like ice cream","location":{"latitude":25.33427619934082,"longitude":55.37586212158203,"country":"AE","region":"SH"},"likes":26,"responses":13}
{"name":"Madison Simmons","date":"2019-06-24T20:16:13.931629-07:00","comment":"I think I might like hiking","location":{"latitude":49.29161834716797,"longitude":-123.13533020019531,"country":"CA","region":"BC"},"likes":26,"responses":14}
{"name":"Jacob Bentley","date":"2019-11-18T20:16:13.931629-08:00","comment":"I really hate camping","location":{"latitude":51.04276657104492,"longitude":-114.07111358642578,"country":"CA","region":"AB"},"likes":1,"responses":19}
{"name":"Mia Oneal","date":"2019-05-13T20:16:13.931629-07:00","comment":"I love hiking","location":{"latitude":53.51137924194336,"longitude":-113.67578887939453,"country":"CA","region":"AB"},"likes":56,"responses":1}
{"name":"Jeremiah Schmidt","date":"2019-11-04T20:16:13.931629-08:00","comment":"I really hate ice cream","location":{"latitude":51.13005828857422,"longitude":-114.00834655761719,"country":"CA","region":"AB"},"likes":18,"responses":2}
{"name":"Ashton Rush","date":"2019-08-15T20:16:13.931629-07:00","comment":"I like long walks on the beach","location":{"latitude":-34.603912353515625,"longitude":-58.41093826293945,"country":"AR","region":"C"},"likes":141,"responses":2}
{"name":"Preston Andrews","date":"2020-01-10T20:16:13.931629-08:00","comment":"I like hiking","location":{"latitude":48.78617858886719,"longitude":-123.70707702636719,"country":"CA","region":"BC"},"likes":11,"responses":49}
{"name":"Judah Reyes","date":"2019-04-15T20:16:13.931629-07:00","comment":"I like long walks on the beach","location":{"latitude":45.420692443847656,"longitude":-75.69912719726562,"country":"CA","region":"ON"},"likes":6,"responses":1}
{"name":"Sydney Francis","date":"2019-03-22T20:16:13.931629-07:00","comment":"I like hiking","location":{"latitude":53.54079818725586,"longitude":-113.52702331542969,"country":"CA","region":"AB"},"likes":1,"responses":104}
{"name":"Ella Hansen","date":"2020-01-18T20:16:13.931629-08:00","comment":"I really hate skiing","location":{"latitude":49.82716751098633,"longitude":-97.15169525146484,"country":"CA","region":"MB"},"likes":1,"responses":2}
{"name":"Savannah Rowe","date":"2019-10-15T20:16:13.931629-07:00","comment":"I love ice cream","location":{"latitude":49.351043701171875,"longitude":-123.25321197509766,"country":"CA","region":"BC"},"likes":4,"responses":1}
{"name":"Caleb Simpson","date":"2019-09-06T20:16:13.931629-07:00","comment":"I hate hiking","location":{"latitude":49.230220794677734,"longitude":-124.04232025146484,"country":"CA","region":"BC"},"likes":5,"responses":2}
{"name":"Robert Butler","date":"2019-03-26T20:16:13.931629-07:00","comment":"Maybe I like tacos","location":{"latitude":42.979408264160156,"longitude":-82.35980987548828,"country":"CA","region":"ON"},"likes":62,"responses":58}
{"name":"Hadley Meyer","date":"2019-08-17T20:16:13.931629-07:00","comment":"I like long walks on the beach","location":{"latitude":43.87397766113281,"longitude":-79.2607421875,"country":"CA","region":"ON"},"likes":27,"responses":1}
{"name":"Sebastian Rocha","date":"2019-03-20T20:16:13.931629-07:00","comment":"I really hate hiking","location":{"latitude":45.311607360839844,"longitude":-75.91413879394531,"country":"CA","region":"ON"},"likes":128,"responses":1}
{"name":"Charles Hatfield","date":"2019-11-04T20:16:13.931629-08:00","comment":"I love camping","location":{"latitude":43.54890060424805,"longitude":-79.66397857666016,"country":"CA","region":"ON"},"likes":16,"responses":1}
{"name":"Rhett Cohen","date":"2019-08-28T20:16:13.931629-07:00","comment":"I really hate long walks on the beach","location":{"latitude":49.14947509765625,"longitude":-123.18231201171875,"country":"CA","region":"BC"},"likes":8,"responses":6}
{"name":"Hayden Arroyo","date":"2019-04-22T20:16:13.931629-07:00","comment":"I really hate tacos","location":{"latitude":49.25849151611328,"longitude":-123.1009292602539,"country":"CA","region":"BC"},"likes":87,"responses":11}
{"name":"Owen Vance","date":"2019-12-25T20:16:13.931629-08:00","comment":"Maybe I like tacos","location":{"latitude":51.009761810302734,"longitude":-114.0823745727539,"country":"CA","region":"AB"},"likes":127,"responses":48}
{"name":"Joel Carroll","date":"2019-07-19T20:16:13.931629-07:00","comment":"I like camping","location":{"latitude":48.42407989501953,"longitude":-123.3621597290039,"country":"CA","region":"BC"},"likes":38,"responses":31}
{"name":"Zoey Taylor","date":"2019-11-30T20:16:13.931629-08:00","comment":"I hate skiing","location":{"latitude":52.28805923461914,"longitude":-113.81444549560547,"country":"CA","region":"AB"},"likes":4,"responses":2}
{"name":"Zander Haynes","date":"2019-08-06T20:16:13.931629-07:00","comment":"I hate skiing","location":{"latitude":53.53266525268555,"longitude":-113.29376983642578,"country":"CA","region":"AB"},"likes":11,"responses":50}
{"name":"Cayden Black","date":"2019-06-27T20:16:13.931629-07:00","comment":"I like hiking","location":{"latitude":24.21200942993164,"longitude":55.62289047241211,"country":"AE","region":"AZ"},