{"name":"Claire Yu","date":"2020-01-24T20:16:13.931629-08:00","comment":"I really hate ice cream","location":{"latitude":43.84933090209961,"longitude":-79.35193634033203,"country":"CA","region":"ON"},"likes":30,"responses":1}
{"name":"Avery Pugh","date":"2019-10-19T20:16:13.931629-07:00","comment":"I hate camping","location":{"latitude":49.26417922973633,"longitude":-123.16632080078125,"country":"CA","region":"BC"},"likes":32,"responses":1}
{"name":"Chase Wilkerson","date":"2019-05-01T20:16:13.931629-07:00","comment":"I really hate tacos","location":{"latitude":43.64924621582031,"longitude":-79.37813568115234,"country":"CA","region":"ON"},"likes":16,"responses":1}
{"name":"Jade Oconnell","date":"2019-09-07T20:16:13.931629-07:00","comment":"I really hate ice cream","location":{"latitude":43.22675323486328,"longitude":-79.95420837402344,"country":"CA","region":"ON"},"likes":20,"responses":2}
{"name":"Hunter Powell","date":"2019-09-22T20:16:13.931629-07:00","comment":"I hate skiing","location":{"latitude":44.33568572998047,"longitude":-79.6885986328125,"country":"CA","region":"ON"},"likes":106,"responses":53}
{"name":"Liam Hubbard","date":"2019-12-04T20:16:13.931629-08:00","comment":"I think I might like camping","location":{"latitude":43.678794860839844,"longitude":-79.34630584716797,"country":"CA","region":"ON"},"likes":8,"responses":49}
{"name":"Maddison Osborn","date":"2019-10-19T20:16:13.931629-07:00","comment":"I like ice cream","location":{"latitude":25.323139190673828,"longitude":55.37833023071289,"country":"AE","region":"SH"},"likes":139,"responses":20}
{"name":"Arya Blevins","date":"2019-06-03T20:16:13.931629-07:00","comment":"I really hate hiking","location":{"latitude":48.43254852294922,"longitude":-123.38109588623047,"country":"CA","region":"BC"},"likes":1,"responses":37}
{"name":"Sophia Valencia","date":"2019-03-16T20:16:13.931629-07:00","comment":"I think I might like skiing","location":{"latitude":49.15534973144531,"longitude":-123.95134735107422,"country":"CA","region":"BC"},"likes":2,"responses":20}
{"name":"Phoenix Stokes","date":"2019-09-17T20:16:13.931629-07:00","comment":"Maybe I like camping","location":{"latitude":43.54035949707031,"longitude":-79.87158966064453,"country":"CA","region":"ON"},"likes":2,"responses":21}
{"name":"Zachary Rocha","date":"2020-02-29T20:16:13.931629-08:00","comment":"I like long walks on the beach","location":{"latitude":49.04168701171875,"longitude":-122.29341125488281,"country":"CA","region":"BC"},"likes":9,"responses":7}
{"name":"Josiah Medina","date":"2019-05-26T20:16:13.931629-07:00","comment":"I hate ice cream","location":{"latitude":43.07898712158203,"longitude":-79.08233642578125,"country":"CA","region":"ON"},"likes":26,"responses":19}
{"name":"Adalynn Nelson","date":"2019-05-28T20:16:13.931629-07:00","comment":"I really hate skiing","location":{"latitude":49.37248229980469,"longitude":-123.0986557006836,"country":"CA","region":"BC"},"likes":3,"responses":16}
{"name":"Kaylee Cline","date":"2019-08-08T20:16:13.931629-07:00","comment":"Maybe I like hiking","location":{"latitude":45.49699401855469,"longitude":-73.57561492919922,"country":"CA","region":"QC"},"likes":6,"responses":13}
{"name":"Avery Montoya","date":"2019-07-19T20:16:13.931629-07:00","comment":"Maybe I like ice cream","location":{"latitude":49.31498718261719,"longitude":-122.954345703125,"country":"CA","region":"BC"},"likes":13,"responses":43}
{"name":"Justin Watkins","date":"2020-02-26T20:16:13.931629-08:00","comment":"Maybe I like ice cream","location":{"latitude":51.03974533081055,"longitude":-114.0944595336914,"country":"CA","region":"AB"},"likes":61,"responses":2}
{"name":"Natalie Shannon","date":"2019-10-21T20:16:13.931629-07:00","comment":"I really hate hiking","location":{"latitude":25.067859649658203,"longitude":-77.32792663574219,"country":"BS","region":"NS"},"likes":1,"responses":12}
{"name":"Amara Mccarty","date":"2019-07-29T20:16:13.931629-07:00","comment":"I like hiking","location":{"latitude":49.261924743652344,"longitude":-123.06822204589844,"country":"CA","region":"BC"},"likes":53,"responses":28}
{"name":"Londyn Hart","date":"2019-08-18T20:16:13.931629-07:00","comment":"I really hate long walks on the beach","location":{"latitude":50.98362350463867,"longitude":-114.0412368774414,"country":"CA","region":"AB"},"likes":7,"responses":64}
{"name":"Elaina Leblanc","date":"2019-09-09T20:16:13.931629-07:00","comment":"I really hate long walks on the beach","location":{"latitude":49.69273376464844,"longitude":-112.89179229736328,"country":"CA","region":"AB"},"likes":14,"responses":1}
{"name":"Oliver Jones","date":"2020-02-22T20:16:13.931629-08:00","comment":"I really hate camping","location":{"latitude":43.728702545166016,"longitude":-79.4184341430664,"country":"CA","region":"ON"},"likes":8,"responses":35}
{"name":"Jett Davidson","date":"2019-08-23T20:16:13.931629-07:00","comment":"Maybe I like camping","location":{"latitude":48.45972442626953,"longitude":-123.49781799316406,"country":"CA","region":"BC"},"likes":2,"responses":4}
{"name":"Ivy Herrera","date":"2019-12-15T20:16:13.931629-08:00","comment":"I like hiking","location":{"latitude":50.972862243652344,"longitude":-114.09806823730469,"country":"CA","region":"AB"},"likes":4,"responses":133}
{"name":"Logan Booker","date":"2019-05-07T20:16:13.931629-07:00","comment":"I love skiing","location":{"latitude":43.7703742980957,"longitude":-79.18648529052734,"country":"CA","region":"ON"},"likes":11,"responses":136}
{"name":"Maddox Carpenter","date":"2019-08-03T20:16:13.931629-07:00","comment":"I like hiking","location":{"latitude":49.19404220581055,"longitude":-123.18133544921875,"country":"CA","region":"BC"},"likes":15,"responses":7}
{"name":"Nolan Kim","date":"2019-03-16T20:16:13.931629-07:00","comment":"I hate camping","location":{"latitude":49.308799743652344,"longitude":-123.04248809814453,"country":"CA","region":"BC"},"likes":1,"responses":147}
{"name":"Madison Richmond","date":"2019-11-07T20:16:13.931629-08:00","comment":"I hate hiking","location":{"latitude":48.42407989501953,"longitude":-123.3621597290039,"country":"CA","region":"BC"},"likes":5,"responses":110}
{"name":"Harper Melendez","date":"2020-01-24T20:16:13.931629-08:00","comment":"I really hate skiing","location":{"latitude":49.24515914916992,"longitude":-123.12484741210938,"country":"CA","region":"BC"},"likes":48,"responses":4}
{"name":"Carly Haley","date":"2020-02-28T20:16:13.931629-08:00","comment":"I hate camping","location":{"latitude":49.282047271728516,"longitude":-123.1185073852539,"country":"CA","region":"BC"},"likes":6,"responses":1}
{"name":"Layla Baldwin","date":"2019-10-10T20:16:13.931629-07:00","comment":"I hate tacos","location":{"latitude":22.3228702545166,"longitude":114.21343994140625,"country":"CN","region":"91"},"likes":87,"responses":1}
{"name":"Riley Bell","date":"2019-08-12T20:16:13.931629-07:00","comment":"I like hiking","location":{"latitude":50.12410354614258,"longitude":-120.76288604736328,"country":"CA","region":"BC"},"likes":27,"responses":1}
{"name":"Mark Henderson","date":"2019-11-19T20:16:13.931629-08:00","comment":"I like camping","location":{"latitude":43.3294563293457,"longitude":-79.81961822509766,"country":"CA","region":"ON"},"likes":25,"responses":2}
{"name":"Jaiden Trevino","date":"2019-11-03T20:16:13.931629-08:00","comment":"I really hate skiing","location":{"latitude":49.892547607421875,"longitude":-97.1472396850586,"country":"CA","region":"MB"},"likes":128,"responses":2}
{"name":"Riley Hooper","date":"2019-10-07T20:16:13.931629-07:00","comment":"I hate camping","location":{"latitude":43.65774917602539,"longitude":-79.38750457763672,"country":"CA","region":"ON"},"likes":25,"responses":11}
{"name":"Kevin Meyer","date":"2020-01-23T20:16:13.931629-08:00","comment":"Maybe I like ice cream","location":{"latitude":53.54079818725586,"longitude":-113.52702331542969,"country":"CA","region":"AB"},"likes":56,"responses":7}
{"name":"Grace Herrera","date":"2019-08-29T20:16:13.931629-07:00","comment":"I really hate camping","location":{"latitude":43.902957916259766,"longitude":-80.11981964111328,"country":"CA","region":"ON"},"likes":5,"responses":4}
{"name":"William Donaldson","date":"2019-12-20T20:16:13.931629-08:00","comment":"I hate camping","location":{"latitude":24.924592971801758,"longitude":54.99717712402344,"country":"AE","region":"DU"},"likes":1,"responses":1}
{"name":"Ariana Huffman","date":"2019-09-02T20:16:13.931629-07:00","comment":"I hate skiing","location":{"latitude":55.74873352050781,"longitude":-120.22449493408203,"country":"CA","region":"BC"},"likes":2,"responses":39}
{"name":"Hugo Atkins","date":"2019-04-24T20:16:13.931629-07:00","comment":"I hate ice cream","location":{"latitude":45.419429779052734,"longitude":-75.69732666015625,"country":"CA","region":"ON"},"likes":2,"responses":5}
{"name":"Adeline Yang","date":"2019-08-11T20:16:13.931629-07:00","comment":"Maybe I like hiking","location":{"latitude":49.279884338378906,"longitude":-123.11787414550781,"country":"CA","region":"BC"},"likes":3,"responses":3}
{"name":"Nicole Madden","date":"2019-05-21T20:16:13.931629-07:00","comment":"I hate tacos","location":{"latitude":49.88075637817383,"longitude":-119.44084167480469,"country":"CA","region":"BC"},"likes":1,"responses":7}
{"name":"Londyn Soto","date":"2019-07-15T20:16:13.931629-07:00","comment":"I think I might like hiking","location":{"latitude":44.009403228759766,"longitude":-79.47059631347656,"country":"CA","region":"ON"},"likes":125,"responses":1}
{"name":"Jordan Mccann","date":"2019-06-27T20:16:13.931629-07:00","comment":"I hate long walks on the beach","location":{"latitude":25.102262496948242,"longitude":55.162452697753906,"country":"AE","region":"DU"},"likes":29,"responses":62}
{"name":"Joseph Lamb","date":"2019-12-19T20:16:13.931629-08:00","comment":"I like ice cream","location":{"latitude":44.659244537353516,"longitude":-63.670501708984375,"country":"CA","region":"NS"},"likes":79,"responses":2}
{"name":"Jaxson Anderson","date":"2020-02-15T20:16:13.931629-08:00","comment":"I like skiing","location":{"latitude":45.41926574707031,"longitude":-75.69951629638672,"country":"CA","region":"ON"},"likes":37,"responses":12}
{"name":"Liam Russell","date":"2019-03-12T20:16:13.931629-07:00","comment":"I like camping","location":{"latitude":49.332672119140625,"longitude":-123.09039306640625,"country":"CA","region":"BC"},"likes":4,"responses":4}
{"name":"Lincoln Carroll","date":"2019-09-30T20:16:13.931629-07:00","comment":"I hate hiking","location":{"latitude":53.50413513183594,"longitude":-113.61474609375,"country":"CA","region":"AB"},"likes":108,"responses":14}
{"name":"Zane Bartlett","date":"2019-12-04T20:16:13.931629-08:00","comment":"Maybe I like hiking","location":{"latitude":43.844417572021484,"longitude":-79.56007385253906,"country":"CA","region":"ON"},"likes":8,"responses":5}
{"name":"Reagan Webb","date":"2020-02-15T20:16:13.931629-08:00","comment":"I like long walks on the beach","location":{"latitude":50.70549392700195,"longitude":-113.97344970703125,"country":"CA","region":"AB"},"likes":1,"responses":1}
{"name":"Archer Mcclain","date":"2019-10-22T20:16:13.931629-07:00","comment":"I hate skiing","location":{"latitude":49.124019622802734,"longitude":-123.18085479736328,"country":"CA","region":"BC"},"likes":5,"responses":1}
{"name":"Oliver Pace","date":"2019-11-29T20:16:13.931629-08:00","comment":"I like skiing","location":{"latitude":49.28557205200195,"longitude":-123.13874816894531,"country":"CA","region":"BC"},"likes":5,"responses":1}
{"name":"Aspen Levine","date":"2019-10-23T20:16:13.931629-07:00","comment":"Maybe I like long walks on the beach","location":{"latitude":49.033409118652344,"longitude":-122.80081939697266,"country":"CA","region":"BC"},"likes":2,"responses":2}
{"name":"Serenity Cowan","date":"2019-09-06T20:16:13.931629-07:00","comment":"I really hate tacos","location":{"latitude":49.26087188720703,"longitude":-123.1257553100586,"country":"CA","region":"BC"},"likes":1,"responses":43}
{"name":"Jason Pacheco","date":"2019-03-13T20:16:13.931629-07:00","comment":"I really hate tacos","location":{"latitude":24.924592971801758,"longitude":54.99717712402344,"country":"AE","region":"DU"},"likes":106,"responses":3}
{"name":"Bryson Joyce","date":"2019-11-17T20:16:13.931629-08:00","comment":"I like long walks on the beach","location":{"latitude":49.167537689208984,"longitude":-123.1384048461914,"country":"CA","region":"BC"},"likes":41,"responses":1}
{"name":"Hunter Griffith","date":"2019-08-09T20:16:13.931629-07:00","comment":"I really hate camping","location":{"latitude":49.282752990722656,"longitude":-123.085693359375,"country":"CA","region":"BC"},"likes":1,"responses":1}
{"name":"Genevieve Cisneros","date":"2020-01-11T20:16:13.931629-08:00","comment":"Maybe I like skiing","location":{"latitude":49.2845458984375,"longitude":-123.1218490600586,"country":"CA","region":"BC"},"likes":62,"responses":26}
{"name":"Timothy Mccann","date":"2020-03-02T20:16:13.931629-08:00","comment":"I hate long walks on the beach","location":{"latitude":49.248680114746094,"longitude":-123.12648010253906,"country":"CA","region":"BC"},"likes":106,"responses":3}
{"name":"Jax Meyer","date":"2019-04-12T20:16:13.931629-07:00","comment":"I like camping","location":{"latitude":49.25791931152344,"longitude":-123.168212890625,"country":"CA","region":"BC"},"likes":1,"responses":14}
{"name":"Jenna Gordon","date":"2019-09-13T20:16:13.931629-07:00","comment":"I love camping","location":{"latitude":53.409141540527344,"longitude":-117.58637237548828,"country":"CA","region":"AB"},"likes":12,"responses":2}
{"name":"George Nicholson","date":"2019-04-03T20:16:13.931629-07:00","comment":"I like camping","location":{"latitude":43.706905364990234,"longitude":-79.39686584472656,"country":"CA","region":"ON"},"likes":5,"responses":9}
{"name":"Max Larson","date":"2019-12-01T20:16:13.931629-08:00","comment":"I like tacos","location":{"latitude":44.25040817260742,"longitude":-76.56731414794922,"country":"CA","region":"ON"},"likes":44,"responses":4}
{"name":"Rose Mayer","date":"2019-06-11T20:16:13.931629-07:00","comment":"Maybe I like camping","location":{"latitude":45.420692443847656,"longitude":-75.69912719726562,"country":"CA","region":"ON"},"likes":1,"responses":1}
{"name":"Elsie Finley","date":"2019-08-13T20:16:13.931629-07:00","comment":"Maybe I like hiking","location":{"latitude":25.21111297607422,"longitude":55.27522277832031,"country":"AE","region":"DU"},"likes":6,"responses":13}
{"name":"Peyton Riddle","date":"2019-04-13T20:16:13.931629-07:00","comment":"I hate camping","location":{"latitude":49.66657257080078,"longitude":-112.79493713378906,"country":"CA","region":"AB"},"likes":26,"responses":74}
{"name":"Lila Sharp","date":"2019-06-18T20:16:13.931629-07:00","comment":"I like long walks on the beach","location":{"latitude":49.35061264038086,"longitude":-123.2545394897461,"country":"CA","region":"BC"},"likes":27,"responses":2}
{"name":"Paisley Spencer","date":"2019-09-28T20:16:13.931629-07:00","comment":"I like tacos","location":{"latitude":24.468690872192383,"longitude":54.33824157714844,"country":"AE","region":"AZ"},"likes":1,"responses":2}
{"name":"John Lindsey","date":"2019-10-27T20:16:13.931629-07:00","comment":"I think I might like ice cream","location":{"latitude":49.313438415527344,"longitude":-123.07733154296875,"country":"CA","region":"BC"},"likes":94,"responses":1}
{"name":"Charlie Heath","date":"2019-09-22T20:16:13.931629-07:00","comment":"I like camping","location":{"latitude":43.65000534057617,"longitude":-79.3909912109375,"country":"CA","region":"ON"},"likes":3,"responses":60}
{"name":"Ruby Cross","date":"2020-01-27T20:16:13.931629-08:00","comment":"I really hate long walks on the beach","location":{"latitude":49.2484016418457,"longitude":-123.15475463867188,"country":"CA","region":"BC"},"likes":1,"responses":101}
{"name":"George Santiago","date":"2019-05-14T20:16:13.931629-07:00","comment":"I like tacos","location":{"latitude":49.28387451171875,"longitude":-122.82792663574219,"country":"CA","region":"BC"},"likes":86,"responses":22}
{"name":"Evelynn Fernandez","date":"2019-04-26T20:16:13.931629-07:00","comment":"Maybe I like hiking","location":{"latitude":43.50906753540039,"longitude":-79.63147735595703,"country":"CA","region":"ON"},"likes":9,"responses":30}
{"name":"Nathaniel Velasquez","date":"2019-06-12T20:16:13.931629-07:00","comment":"I hate skiing","location":{"latitude":45.50080871582031,"longitude":-73.57364654541016,"country":"CA","region":"QC"},"likes":7,"responses":4}
{"name":"Matthew Henderson","date":"2019-03-15T20:16:13.931629-07:00","comment":"I think I might like ice cream","location":{"latitude":51.10645294189453,"longitude":-114.1590576171875,"country":"CA","region":"AB"},"likes":9,"responses":4}
{"name":"Oliver Wilson","date":"2019-06-26T20:16:13.931629-07:00","comment":"I like camping","location":{"latitude":43.822601318359375,"longitude":-79.3259048461914,"country":"CA","region":"ON"},"likes":20,"responses":2}
{"name":"Gabriel Chang","date":"2019-10-16T20:16:13.931629-07:00","comment":"Maybe I like skiing","location":{"latitude":22.28055191040039,"longitude":114.17680358886719,"country":"CN","region":"91"},"likes":2,"responses":14}
{"name":"Isaiah Collins","date":"2019-05-04T20:16:13.931629-07:00","comment":"I like ice cream","location":{"latitude":51.081050872802734,"longitude":-113.98423767089844,"country":"CA","region":"AB"},"likes":13,"responses":2}
{"name":"Grace Farrell","date":"2020-03-03T20:16:13.931629-08:00","comment":"I like hiking","location":{"latitude":49.263832092285156,"longitude":-122.76681518554688,"country":"CA","region":"BC"},"likes":49,"responses":80}
{"name":"Penelope Carrillo","date":"2019-05-28T20:16:13.931629-07:00","comment":"I like camping","location":{"latitude":25.23447036743164,"longitude":55.31147003173828,"country":"AE","region":"DU"},"likes":3,"responses":78}
{"name":"Ivan Patrick","date":"2019-07-29T20:16:13.931629-07:00","comment":"I hate camping","location":{"latitude":51.16093063354492,"longitude":-114.06485748291016,"country":"CA","region":"AB"},"likes":1,"responses":1}
{"name":"Ethan Carroll","date":"2019-08-23T20:16:13.931629-07:00","comment":"I like tacos","location":{"latitude":51.09574890136719,"longitude":-114.14049530029297,"country":"CA","region":"AB"},"likes":6,"responses":7}
{"name":"Eli Cunningham","date":"2020-02-09T20:16:13.931629-08:00","comment":"I hate skiing","location":{"latitude":53.60105514526367,"longitude":-113.42273712158203,"country":"CA","region":"AB"},"likes":19,"responses":82}
{"name":"Natalia Rubio","date":"2020-02-15T20:16:13.931629-08:00","comment":"Maybe I like skiing","location":{"latitude":24.18798828125,"longitude":55.68792724609375,"country":"AE","region":"AZ"},"likes":6,"responses":111}
{"name":"Royce Zuniga","date":"2019-07-14T20:16:13.931629-07:00","comment":"I love skiing","location":{"latitude":43.655513763427734,"longitude":-79.38542175292969,"country":"CA","region":"ON"},"likes":142,"responses":27}
{"name":"Avery Franco","date":"2020-01-18T20:16:13.931629-08:00","comment":"I really hate camping","location":{"latitude":48.46925735473633,"longitude":-123.36286926269531,"country":"CA","region":"BC"},"likes":41,"responses":76}
{"name":"Alice Mcpherson","date":"2019-12-27T20:16:13.931629-08:00","comment":"I really hate hiking","location":{"latitude":43.48740005493164,"longitude":-79.71824645996094,"country":"CA","region":"ON"},"likes":1,"responses":4}
{"name":"Nora Fletcher","date":"2019-05-20T20:16:13.931629-07:00","comment":"I hate skiing","location":{"latitude":53.62187957763672,"longitude":-113.6112289428711,"country":"CA","region":"AB"},"likes":12,"responses":18}
{"name":"Joshua Solis","date":"2019-10-28T20:16:13.931629-07:00","comment":"I love ice cream","location":{"latitude":51.020389556884766,"longitude":-114.1690902709961,"country":"CA","region":"AB"},"likes":3,"responses":33}
{"name":"Waylon Melton","date":"2020-01-27T20:16:13.931629-08:00","comment":"I hate camping","location":{"latitude":26.211650848388672,"longitude":50.607730865478516,"country":"BH","region":"13"},"likes":1,"responses":1}
{"name":"Owen Rocha","date":"2019-08-22T20:16:13.931629-07:00","comment":"I hate ice cream","location":{"latitude":51.05457305908203,"longitude":-113.98198699951172,"country":"CA","region":"AB"},"likes":90,"responses":60}
{"name":"Adalynn Marshall","date":"2019-10-25T20:16:13.931629-07:00","comment":"I really hate skiing","location":{"latitude":49.19499206542969,"longitude":-123.17855834960938,"country":"CA","region":"BC"},"likes":19,"responses":1}
{"name":"Emily Hinton","date":"2019-12-26T20:16:13.931629-08:00","comment":"I like ice cream","location":{"latitude":43.768287658691406,"longitude":-79.41294860839844,"country":"CA","region":"ON"},"likes":99,"responses":11}
{"name":"Miles Trevino","date":"2019-07-28T20:16:13.931629-07:00","comment":"Maybe I like skiing","location":{"latitude":25.298219680786133,"longitude":55.371559143066406,"country":"AE","region":"SH"},"likes":25,"responses":1}
{"name":"Emma Higgins","date":"2019-10-18T20:16:13.931629-07:00","comment":"I love long walks on the beach","location":{"latitude":50.953086853027344,"longitude":-114.06468200683594,"country":"CA","region":"AB"},"likes":24,"responses":66}
{"name":"Tucker Stephenson","date":"2019-07-15T20:16:13.931629-07:00","comment":"I think I might like hiking","location":{"latitude":50.972862243652344,"longitude":-114.09806823730469,"country":"CA","region":"AB"},"likes":6,"responses":1}
{"name":"Fabian Pugh","date":"2019-08-26T20:16:13.931629-07:00","comment":"Maybe I like hiking","location":{"latitude":53.51827621459961,"longitude":-113.49732208251953,"country":"CA","region":"AB"},"likes":62,"responses":5}
{"name":"Mason Hodges","date":"2019-04-10T20:16:13.931629-07:00","comment":"I really hate camping","location":{"latitude":43.65583038330078,"longitude":-79.41156768798828,"country":"CA","region":"ON"},"likes":49,"responses":1}
{"name":"Gael Ibarra","date":"2020-01-20T20:16:13.931629-08:00","comment":"I really hate long walks on the beach","location":{"latitude":51.2955207824707,"longitude":-114.0135726928711,"country":"CA","region":"AB"},"likes":15,"responses":11}
{"name":"Luca Freeman","date":"2019-11-13T20:16:13.931629-08:00","comment":"I think I might like ice cream","location":{"latitude":44.231529235839844,"longitude":-76.48220825195312,"country":"CA","region":"ON"},"likes":1,"responses":16}
{"name":"Amir Compton","date":"2019-11-05T20:16:13.931629-08:00","comment":"I love hiking","location":{"latitude":43.732643127441406,"longitude":-79.41921997070312,"country":"CA","region":"ON"},"likes":4,"responses":9}
{"name":"Roman Estrada","date":"2019-08-21T20:16:13.931629-07:00","comment":"I hate ice cream","location":{"latitude":43.87187957763672,"longitude":-78.9082260131836,"country":"CA","region":"ON"},"likes":4,"responses":53}
{"name":"Lucas Massey","date":"2020-02-09T20:16:13.931629-08:00","comment":"I love hiking","location":{"latitude":49.10641860961914,"longitude":-122.66260528564453,"country":"CA","region":"BC"},"likes":14,"responses":40}
{"name":"Katie Beck","date":"2019-05-20T20:16:13.931629-07:00","comment":"I think I might like hiking","location":{"latitude":51.04240036010742,"longitude":-114.0804214477539,"country":"CA","region":"AB"},"likes":2,"responses":97}
{"name":"Elijah Collins","date":"2019-03-26T20:16:13.931629-07:00","comment":"I love skiing","location":{"latitude":51.014259338378906,"longitude":-114.14080047607422,"country":"CA","region":"AB"},"likes":1,"responses":111}
{"name":"Matthew Rodgers","date":"2019-08-15T20:16:13.931629-07:00","comment":"I love long walks on the beach","location":{"latitude":25.080739974975586,"longitude":55.139060974121094,"country":"AE","region":"DU"},"likes":106,"responses":1}
{"name":"Daniel Love","date":"2019-10-10T20:16:13.931629-07:00","comment":"I like hiking","location":{"latitude":43.21953582763672,"longitude":-79.72571563720703,"country":"CA","region":"ON"},"likes":77,"responses":2}
{"name":"Isabella Dudley","date":"2019-07-19T20:16:13.931629-07:00","comment":"I really hate camping","location":{"latitude":49.22509002685547,"longitude":-123.05352020263672,"country":"CA","region":"BC"},"likes":129,"responses":2}
{"name":"Madison Kane","date":"2019-08-30T20:16:13.931629-07:00","comment":"I hate skiing","location":{"latitude":44.25040817260742,"longitude":-76.56731414794922,"country":"CA","region":"ON"},"likes":8,"responses":3}
{"name":"Cooper Bridges","date":"2019-11-24T20:16:13.931629-08:00","comment":"I hate camping","location":{"latitude":53.45490264892578,"longitude":-113.51031494140625,"country":"CA","region":"AB"},"likes":11,"responses":1}
{"name":"Jayden Lambert","date":"2019-04-08T20:16:13.931629-07:00","comment":"I really hate tacos","location":{"latitude":46.864540100097656,"longitude":-71.21437072753906,"country":"CA","region":"QC"},"likes":3,"responses":3}
{"name":"Noah Charles","date":"2019-06-12T20:16:13.931629-07:00","comment":"I hate skiing","location":{"latitude":49.28120422363281,"longitude":-123.01213836669922,"country":"CA","region":"BC"},"likes":4,"responses":2}
{"name":"Asher Villegas","date":"2020-01-15T20:16:13.931629-08:00","comment":"I really hate tacos","location":{"latitude":43.658748626708984,"longitude":-79.3956298828125,"country":"CA","region":"ON"},"likes":3,"responses":34}
{"name":"Nova Rush","date":"2019-12-11T20:16:13.931629-08:00","comment":"Maybe I like ice cream","location":{"latitude":43.462764739990234,"longitude":-80.52186584472656,"country":"CA","region":"ON"},"likes":1,"responses":29}
{"name":"Michael Mahoney","date":"2019-11-21T20:16:13.931629-08:00","comment":"I really hate tacos","location":{"latitude":43.190162658691406,"longitude":-79.22716522216797,"country":"CA","region":"ON"},"likes":13,"responses":11}
{"name":"Briella Cline","date":"2019-03-29T20:16:13.931629-07:00","comment":"I think I might like skiing","location":{"latitude":53.44721221923828,"longitude":-113.484619140625,"country":"CA","region":"AB"},"likes":1,"responses":46}
{"name":"Owen Nguyen","date":"2019-04-30T20:16:13.931629-07:00","comment":"I like skiing","location":{"latitude":49.19322204589844,"longitude":-123.18128204345703,"country":"CA","region":"BC"},"likes":28,"responses":9}
{"name":"Alijah Colon","date":"2019-12-23T20:16:13.931629-08:00","comment":"I like skiing","location":{"latitude":49.15534973144531,"longitude":-123.95134735107422,"country":"CA","region":"BC"},"likes":48,"responses":9}
{"name":"Austin Francis","date":"2020-02-04T20:16:13.931629-08:00","comment":"I like hiking","location":{"latitude":43.63962173461914,"longitude":-79.53751373291016,"country":"CA","region":"ON"},"likes":14,"responses":53}
{"name":"Roman Porter","date":"2019-10-02T20:16:13.931629-07:00","comment":"I hate skiing","location":{"latitude":50.679054260253906,"longitude":-120.27518463134766,"country":"CA","region":"BC"},"likes":16,"responses":2}
{"name":"Elijah French","date":"2019-06-23T20:16:13.931629-07:00","comment":"I like hiking","location":{"latitude":49.09141159057617,"longitude":-123.07905578613281,"country":"CA","region":"BC"},"likes":5,"responses":38}
{"name":"Hudson Villegas","date":"2019-04-05T20:16:13.931629-07:00","comment":"I hate camping","location":{"latitude":49.68388748168945,"longitude":-124.99149322509766,"country":"CA","region":"BC"},"likes":1,"responses":32}
{"name":"Jonas Maddox","date":"2020-02-07T20:16:13.931629-08:00","comment":"I like long walks on the beach","location":{"latitude":51.06726837158203,"longitude":-114.08634948730469,"country":"CA","region":"AB"},"likes":91,"responses":4}
{"name":"Serenity Mendoza","date":"2019-12-07T20:16:13.931629-08:00","comment":"I hate hiking","location":{"latitude":51.05082702636719,"longitude":-114.07095336914062,"country":"CA","region":"AB"},"likes":2,"responses":28}
{"name":"Weston Carter","date":"2019-04-08T20:16:13.931629-07:00","comment":"I really hate long walks on the beach","location":{"latitude":49.28086471557617,"longitude":-122.79953002929688,"country":"CA","region":"BC"},"likes":6,"responses":16}
{"name":"Veronica Forbes","date":"2019-06-10T20:16:13.931629-07:00","comment":"I really hate long walks on the beach","location":{"latitude":49.23244857788086,"longitude":-123.02410125732422,"country":"CA","region":"BC"},"likes":17,"responses":3}
{"name":"Genesis Payne","date":"2019-07-26T20:16:13.931629-07:00","comment":"I think I might like tacos","location":{"latitude":49.296142578125,"longitude":-122.80347442626953,"country":"CA","region":"BC"},"likes":145,"responses":99}
{"name":"Sofia Hinton","date":"2019-12-05T20:16:13.931629-08:00","comment":"I love hiking","location":{"latitude":55.74873352050781,"longitude":-120.22449493408203,"country":"CA","region":"BC"},"likes":5,"responses":1}
{"name":"Lydia Cooley","date":"2019-10-31T20:16:13.931629-07:00","comment":"I like hiking","location":{"latitude":49.160247802734375,"longitude":-122.66716003417969,"country":"CA","region":"BC"},"likes":2,"responses":1}
{"name":"Stella Castaneda","date":"2019-11-06T20:16:13.931629-08:00","comment":"I like hiking","location":{"latitude":49.26353073120117,"longitude":-123.14443969726562,"country":"CA","region":"BC"},"likes":13,"responses":63}
{"name":"Cesar Cain","date":"2020-01-06T20:16:13.931629-08:00","comment":"I love skiing","location":{"latitude":44.6492919921875,"longitude":-63.57573699951172,"country":"CA","region":"NS"},"likes":32,"responses":10}
{"name":"Samuel Burgess","date":"2019-09-12T20:16:13.931629-07:00","comment":"I love hiking","location":{"latitude":22.28445053100586,"longitude":114.15846252441406,"country":"CN","region":"91"},"likes":7,"responses":15}
{"name":"Finley Castillo","date":"2019-06-21T20:16:13.931629-07:00","comment":"Maybe I like long walks on the beach","location":{"latitude":43.757999420166016,"longitude":-79.40977478027344,"country":"CA","region":"ON"},"likes":97,"responses":2}
{"name":"Nathaniel Thornton","date":"2019-06-26T20:16:13.931629-07:00","comment":"I really hate skiing","location":{"latitude":43.467742919921875,"longitude":-80.568603515625,"country":"CA","region":"ON"},"likes":7,"responses":8}
{"name":"Evan Strickland","date":"2019-09-29T20:16:13.931629-07:00","comment":"I like long walks on the beach","location":{"latitude":49.26902389526367,"longitude":-123.1460189819336,"country":"CA","region":"BC"},"likes":6,"responses":14}
{"name":"Jacob Francis","date":"2020-02-14T20:16:13.931629-08:00","comment":"I like skiing","location":{"latitude":44.6488151550293,"longitude":-63.67469787597656,"country":"CA","region":"NS"},"likes":31,"responses":24}
{"name":"William Hale","date":"2019-09-19T20:16:13.931629-07:00","comment":"I love hiking","location":{"latitude":22.283939361572266,"longitude":114.15818786621094,"country":"CN","region":"91"},"likes":36,"responses":4}
{"name":"Nolan Archer","date":"2019-11-28T20:16:13.931629-08:00","comment":"I love tacos","location":{"latitude":49.66657257080078,"longitude":-112.79493713378906,"country":"CA","region":"AB"},"likes":47,"responses":12}
{"name":"Gianna Vang","date":"2020-01-27T20:16:13.931629-08:00","comment":"I hate ice cream","location":{"latitude":49.84700012207031,"longitude":-97.15251922607422,"country":"CA","region":"MB"},"likes":2,"responses":20}
{"name":"Barrett Farrell","date":"2020-02-05T20:16:13.931629-08:00","comment":"I like camping","location":{"latitude":49.282047271728516,"longitude":-123.1185073852539,"country":"CA","region":"BC"},"likes":3,"responses":126}
{"name":"Skyler Hendrix","date":"2019-06-15T20:16:13.931629-07:00","comment":"I hate hiking","location":{"latitude":50.933868408203125,"longitude":-113.96246337890625,"country":"CA","region":"AB"},"likes":15,"responses":6}
{"name":"Anthony Kaufman","date":"2019-08-16T20:16:13.931629-07:00","comment":"I love camping","location":{"latitude":53.5390510559082,"longitude":-113.4254379272461,"country":"CA","region":"AB"},"likes":4,"responses":118}
{"name":"William Rocha","date":"2019-11-27T20:16:13.931629-08:00","comment":"I like camping","location":{"latitude":51.185218811035156,"longitude":-114.47618865966797,"country":"CA","region":"AB"},"likes":97,"responses":43}
{"name":"Journey Rivas","date":"2020-02-10T20:16:13.931629-08:00","comment":"I love tacos","location":{"latitude":45.50243377685547,"longitude":-73.57176208496094,"country":"CA","region":"QC"},"likes":47,"responses":42}
{"name":"Eli Adkins","date":"2019-12-27T20:16:13.931629-08:00","comment":"I hate camping","location":{"latitude":49.26222229003906,"longitude":-123.24993896484375,"country":"CA","region":"BC"},"likes":1,"responses":36}
{"name":"David Grant","date":"2019-05-18T20:16:13.931629-07:00","comment":"I like camping","location":{"latitude":49.87907409667969,"longitude":-97.1471939086914,"country":"CA","region":"MB"},"likes":4,"responses":7}
{"name":"Amelia Wilson","date":"2019-12-16T20:16:13.931629-08:00","comment":"I think I might like skiing","location":{"latitude":43.646236419677734,"longitude":-79.39205932617188,"country":"CA","region":"ON"},"likes":3,"responses":37}
{"name":"Adelyn Sullivan","date":"2019-03-22T20:16:13.931629-07:00","comment":"I hate skiing","location":{"latitude":49.04676818847656,"longitude":-122.77655792236328,"country":"CA","region":"BC"},"likes":11,"responses":80}
{"name":"Ezra Jones","date":"2019-11-13T20:16:13.931629-08:00","comment":"Maybe I like skiing","location":{"latitude":42.99231719970703,"longitude":-81.2648696899414,"country":"CA","region":"ON"},"likes":5,"responses":16}
{"name":"Aria Mueller","date":"2019-09-26T20:16:13.931629-07:00","comment":"I hate ice cream","location":{"latitude":43.659942626953125,"longitude":-79.72569274902344,"country":"CA","region":"ON"},"likes":49,"responses":39}
{"name":"Evan Hester","date":"2019-05-22T20:16:13.931629-07:00","comment":"I like hiking","location":{"latitude":22.3228702545166,"longitude":114.21343994140625,"country":"CN","region":"91"},"likes":89,"responses":39}
{"name":"Camryn Le","date":"2019-11-10T20:16:13.931629-08:00","comment":"I hate skiing","location":{"latitude":50.71703338623047,"longitude":-113.98033905029297,"country":"CA","region":"AB"},"likes":4,"responses":70}
{"name":"Nevaeh Perkins","date":"2019-05-13T20:16:13.931629-07:00","comment":"I like tacos","location":{"latitude":25.084243774414062,"longitude":55.150089263916016,"country":"AE","region":"DU"},"likes":78,"responses":109}
{"name":"Jacob Avery","date":"2019-06-26T20:16:13.931629-07:00","comment":"I like skiing","location":{"latitude":51.06480026245117,"longitude":-114.09077453613281,"country":"CA","region":"AB"},"likes":15,"responses":31}
{"name":"Jordan Lowery","date":"2019-07-28T20:16:13.931629-07:00","comment":"I like hiking","location":{"latitude":53.46421813964844,"longitude":-113.49309539794922,"country":"CA","region":"AB"},"likes":2,"responses":63}
{"name":"Gabriel Hall","date":"2019-10-07T20:16:13.931629-07:00","comment":"I like long walks on the beach","location":{"latitude":43.64914321899414,"longitude":-79.38388061523438,"country":"CA","region":"ON"},"likes":97,"responses":15}
{"name":"Elena Hoffman","date":"2019-09-19T20:16:13.931629-07:00","comment":"I like skiing","location":{"latitude":25.23447036743164,"longitude":55.31147003173828,"country":"AE","region":"DU"},"likes":84,"responses":15}
{"name":"Roman Greer","date":"2019-05-11T20:16:13.931629-07:00","comment":"I like tacos","location":{"latitude":42.93794250488281,"longitude":-81.22579956054688,"country":"CA","region":"ON"},"likes":4,"responses":5}
{"name":"Riley Juarez","date":"2019-04-18T20:16:13.931629-07:00","comment":"I hate camping","location":{"latitude":43.836647033691406,"longitude":-79.08992004394531,"country":"CA","region":"ON"},"likes":2,"responses":9}
{"name":"Henry Kirby","date":"2019-12-23T20:16:13.931629-08:00","comment":"I hate camping","location":{"latitude":46.79649353027344,"longitude":-71.170166015625,"country":"CA","region":"QC"},"likes":22,"responses":2}
{"name":"Giovanni Hamilton","date":"2019-03-28T20:16:13.931629-07:00","comment":"I like hiking","location":{"latitude":43.63981628417969,"longitude":-79.41959381103516,"country":"CA","region":"ON"},"likes":7,"responses":26}
{"name":"Kyle Bradford","date":"2020-01-12T20:16:13.931629-08:00","comment":"I love hiking","location":{"latitude":49.195308685302734,"longitude":-123.177978515625,"country":"CA","region":"BC"},"likes":4,"responses":27}
{"name":"Reagan Carey","date":"2019-11-24T20:16:13.931629-08:00","comment":"I love skiing","location":{"latitude":49.262264251708984,"longitude":-122.78113555908203,"country":"CA","region":"BC"},"likes":3,"responses":4}
{"name":"Royalty Thompson","date":"2019-12-31T20:16:13.931629-08:00","comment":"I really hate long walks on the beach","location":{"latitude":49.26353073120117,"longitude":-123.14443969726562,"country":"CA","region":"BC"},"likes":6,"responses":145}
{"name":"Alexa Estes","date":"2020-01-24T20:16:13.931629-08:00","comment":"I like camping","location":{"latitude":43.079341888427734,"longitude":-79.08240509033203,"country":"CA","region":"ON"},"likes":61,"responses":88}
{"name":"Benjamin Sanford","date":"2019-10-02T20:16:13.931629-07:00","comment":"I like hiking","location":{"latitude":49.276981353759766,"longitude":-122.79533386230469,"country":"CA","region":"BC"},"likes":2,"responses":18}
{"name":"Gabriel Olsen","date":"2020-02-28T20:16:13.931629-08:00","comment":"I like camping","location":{"latitude":45.45729064941406,"longitude":-73.75273132324219,"country":"CA","region":"QC"},"likes":62,"responses":12}
{"name":"Elise Lozano","date":"2019-09-26T20:16:13.931629-07:00","comment":"I like skiing","location":{"latitude":51.12419891357422,"longitude":-114.24691772460938,"country":"CA","region":"AB"},"likes":1,"responses":57}
{"name":"Legend Liu","date":"2019-05-19T20:16:13.931629-07:00","comment":"I like long walks on the beach","location":{"latitude":48.415611267089844,"longitude":-123.37512969970703,"country":"CA","region":"BC"},"likes":1,"responses":9}
{"name":"Liam Branch","date":"2019-12-13T20:16:13.931629-08:00","comment":"I like ice cream","location":{"latitude":50.66520309448242,"longitude":-120.35249328613281,"country":"CA","region":"BC"},"likes":1,"responses":131}
{"name":"Adelyn Villarreal","date":"2019-09-16T20:16:13.931629-07:00","comment":"I like long walks on the beach","location":{"latitude":49.02336120605469,"longitude":-123.07014465332031,"country":"CA","region":"BC"},"likes":2,"responses":1}
{"name":"Amy York","date":"2019-08-09T20:16:13.931629-07:00","comment":"I love skiing","location":{"latitude":49.351043701171875,"longitude":-123.25321197509766,"country":"CA","region":"BC"},"likes":20,"responses":4}
{"name":"Kaylee Pham","date":"2020-02-01T20:16:13.931629-08:00","comment":"I like hiking","location":{"latitude":43.50906753540039,"longitude":-79.63147735595703,"country":"CA","region":"ON"},"likes":55,"responses":40}
{"name":"Anastasia Webster","date":"2020-03-06T20:16:13.931629-08:00","comment":"I really hate ice cream","location":{"latitude":49.28035354614258,"longitude":-123.130859375,"country":"CA","region":"BC"},"likes":12,"responses":37}
{"name":"Emilia Patterson","date":"2019-06-24T20:16:13.931629-07:00","comment":"I like long walks on the beach","location":{"latitude":53.57133865356445,"longitude":-113.4667739868164,"country":"CA","region":"AB"},"likes":9,"responses":2}
{"name":"Juliette Lam","date":"2020-01-14T20:16:13.931629-08:00","comment":"I love tacos","location":{"latitude":49.10206604003906,"longitude":-122.64570617675781,"country":"CA","region":"BC"},"likes":35,"responses":84}
{"name":"Asher Thompson","date":"2019-07-16T20:16:13.931629-07:00","comment":"I like long walks on the beach","location":{"latitude":43.09323501586914,"longitude":-79.06947326660156,"country":"CA","region":"ON"},"likes":105,"responses":22}
{"name":"Aria Burns","date":"2020-03-05T20:16:13.931629-08:00","comment":"Maybe I like camping","location":{"latitude":53.478355407714844,"longitude":-113.3711929321289,"country":"CA","region":"AB"},"likes":5,"responses":3}
{"name":"Elian Decker","date":"2020-02-16T20:16:13.931629-08:00","comment":"I really hate skiing","location":{"latitude":25.25663948059082,"longitude":55.455848693847656,"country":"AE","region":"DU"},"likes":7,"responses":22}
{"name":"Thomas Morse","date":"2020-01-28T20:16:13.931629-08:00","comment":"I hate camping","location":{"latitude":49.22614669799805,"longitude":-123.00259399414062,"country":"CA","region":"BC"},"likes":21,"responses":17}
{"name":"Ashton Holden","date":"2019-08-31T20:16:13.931629-07:00","comment":"I like hiking","location":{"latitude":43.3294563293457,"longitude":-79.81961822509766,"country":"CA","region":"ON"},"likes":17,"responses":16}
{"name":"Valeria Benson","date":"2019-07-11T20:16:13.931629-07:00","comment":"I like skiing","location":{"latitude":51.13072967529297,"longitude":-114.00846099853516,"country":"CA","region":"AB"},"likes":76,"responses":3}
{"name":"Victor Payne","date":"2019-03-29T20:16:13.931629-07:00","comment":"I hate camping","location":{"latitude":45.36909103393555,"longitude":-75.772216796875,"country":"CA","region":"ON"},"likes":27,"responses":5}
{"name":"John Mccormick","date":"2019-04-12T20:16:13.931629-07:00","comment":"I really hate ice cream","location":{"latitude":43.82929611206055,"longitude":-79.5368881225586,"country":"CA","region":"ON"},"likes":36,"responses":6}
{"name":"Karter Silva","date":"2019-08-22T20:16:13.931629-07:00","comment":"I hate skiing","location":{"latitude":49.21733856201172,"longitude":-122.59184265136719,"country":"CA","region":"BC"},"likes":11,"responses":10}
{"name":"Elian Benton","date":"2019-05-04T20:16:13.931629-07:00","comment":"I really hate tacos","location":{"latitude":53.274803161621094,"longitude":-113.54927062988281,"country":"CA","region":"AB"},"likes":3,"responses":35}
{"name":"Emmett Reid","date":"2019-07-08T20:16:13.931629-07:00","comment":"I like camping","location":{"latitude":49.265567779541016,"longitude":-123.13816833496094,"country":"CA","region":"BC"},"likes":6,"responses":25}
{"name":"Josephine Ward","date":"2020-03-02T20:16:13.931629-08:00","comment":"I like hiking","location":{"latitude":43.66241455078125,"longitude":-79.39532470703125,"country":"CA","region":"ON"},"likes":121,"responses":4}
{"name":"Logan Mcgee","date":"2020-02-05T20:16:13.931629-08:00","comment":"Maybe I like camping","location":{"latitude":48.648128509521484,"longitude":-123.40242004394531,"country":"CA","region":"BC"},"likes":1,"responses":1}
{"name":"Wyatt Farmer","date":"2020-02-29T20:16:13.931629-08:00","comment":"I hate tacos","location":{"latitude":43.1955451965332,"longitude":-79.81062316894531,"country":"CA","region":"ON"},"likes":74,"responses":12}
{"name":"Zachary Barber","date":"2019-08-02T20:16:13.931629-07:00","comment":"I think I might like hiking","location":{"latitude":45.4254264831543,"longitude":-75.69293975830078,"country":"CA","region":"ON"},"likes":53,"responses":24}
{"name":"Emilia Bridges","date":"2019-07-16T20:16:13.931629-07:00","comment":"I really hate ice cream","location":{"latitude":49.16465759277344,"longitude":-122.80087280273438,"country":"CA","region":"BC"},"likes":15,"responses":27}
{"name":"Olivia Gibson","date":"2019-10-18T20:16:13.931629-07:00","comment":"I like tacos","location":{"latitude":44.33427810668945,"longitude":-79.68618774414062,"country":"CA","region":"ON"},"likes":2,"responses":4}
{"name":"Eleanor Le","date":"2019-04-11T20:16:13.931629-07:00","comment":"I hate tacos","location":{"latitude":49.21305465698242,"longitude":-123.14013671875,"country":"CA","region":"BC"},"likes":26,"responses":2}
{"name":"Alexander Carpenter","date":"2020-01-15T20:16:13.931629-08:00","comment":"I hate camping","location":{"latitude":53.54154968261719,"longitude":-113.30851745605469,"country":"CA","region":"AB"},"likes":2,"responses":62}
{"name":"Samuel Harvey","date":"2019-08-10T20:16:13.931629-07:00","comment":"Maybe I like skiing","location":{"latitude":49.825836181640625,"longitude":-97.20157623291016,"country":"CA","region":"MB"},"likes":7,"responses":10}
{"name":"Calvin Dodson","date":"2019-11-28T20:16:13.931629-08:00","comment":"Maybe I like skiing","location":{"latitude":43.1303825378418,"longitude":-80.28594970703125,"country":"CA","region":"ON"},"likes":65,"responses":12}
{"name":"Logan Lynn","date":"2020-02-03T20:16:13.931629-08:00","comment":"Maybe I like tacos","location":{"latitude":50.9845085144043,"longitude":-114.01458740234375,"country":"CA","region":"AB"},"likes":7,"responses":25}
{"name":"Joseph Wilson","date":"2019-03-24T20:16:13.931629-07:00","comment":"I love long walks on the beach","location":{"latitude":45.3905029296875,"longitude":-75.75738525390625,"country":"CA","region":"ON"},"likes":2,"responses":5}
{"name":"Ryan Dixon","date":"2019-06-01T20:16:13.931629-07:00","comment":"I love skiing","location":{"latitude":26.234920501708984,"longitude":50.55458068847656,"country":"BH","region":"13"},"likes":21,"responses":10}
{"name":"Laura Bullock","date":"2019-05-27T20:16:13.931629-07:00","comment":"I really hate hiking","location":{"latitude":53.486061096191406,"longitude":-113.52275085449219,"country":"CA","region":"AB"},"likes":1,"responses":1}
{"name":"Kinsley Farley","date":"2019-05-28T20:16:13.931629-07:00","comment":"I hate skiing","location":{"latitude":43.7556037902832,"longitude":-79.44039154052734,"country":"CA","region":"ON"},"likes":3,"responses":127}
{"name":"Caden Mcintyre","date":"2020-01-10T20:16:13.931629-08:00","comment":"I like hiking","location":{"latitude":49.3204231262207,"longitude":-123.07259368896484,"country":"CA","region":"BC"},"likes":99,"responses":147}
{"name":"Connor Shepherd","date":"2020-02-06T20:16:13.931629-08:00","comment":"I really hate skiing","location":{"latitude":22.280019760131836,"longitude":114.17261505126953,"country":"CN","region":"91"},"likes":13,"responses":4}
{"name":"Gabriella Leach","date":"2019-03-18T20:16:13.931629-07:00","comment":"I really hate hiking","location":{"latitude":46.79649353027344,"longitude":-71.170166015625,"country":"CA","region":"QC"},"likes":26,"responses":1}
{"name":"Milo Cain","date":"2019-12-20T20:16:13.931629-08:00","comment":"Maybe I like camping","location":{"latitude":49.1993293762207,"longitude":-122.97919464111328,"country":"CA","region":"BC"},"likes":2,"responses":6}
{"name":"Christopher Rodriguez","date":"2019-12-15T20:16:13.931629-08:00","comment":"I love camping","location":{"latitude":43.78868865966797,"longitude":-79.5533447265625,"country":"CA","region":"ON"},"likes":43,"responses":1}
{"name":"Amina Campbell","date":"2019-05-14T20:16:13.931629-07:00","comment":"Maybe I like long walks on the beach","location":{"latitude":43.63689422607422,"longitude":-79.62106323242188,"country":"CA","region":"ON"},"likes":48,"responses":109}
{"name":"Cole Bridges","date":"2019-03-09T20:16:13.931629-08:00","comment":"I love tacos","location":{"latitude":53.616363525390625,"longitude":-113.54177856445312,"country":"CA","region":"AB"},"likes":1,"responses":2}
{"name":"Jesse Mcmillan","date":"2019-09-20T20:16:13.931629-07:00","comment":"I like camping","location":{"latitude":49.26417922973633,"longitude":-123.16632080078125,"country":"CA","region":"BC"},"likes":1,"responses":6}
{"name":"Gwendolyn Lucas","date":"2019-05-30T20:16:13.931629-07:00","comment":"I really hate hiking","location":{"latitude":43.483055114746094,"longitude":-79.69617462158203,"country":"CA","region":"ON"},"likes":29,"responses":13}
{"name":"Matthew Parrish","date":"2019-09-22T20:16:13.931629-07:00","comment":"I like hiking","location":{"latitude":43.68197250366211,"longitude":-79.6140365600586,"country":"CA","region":"ON"},"likes":2,"responses":26}
{"name":"Madelyn Trujillo","date":"2019-05-31T20:16:13.931629-07:00","comment":"I really hate tacos","location":{"latitude":43.64924621582031,"longitude":-79.37813568115234,"country":"CA","region":"ON"},"likes":1,"responses":45}
{"name":"Simon Cowan","date":"2019-05-28T20:16:13.931629-07:00","comment":"I like camping","location":{"latitude":26.241689682006836,"longitude":50.58797836303711,"country":"BH","region":"13"},"likes":80,"responses":71}
{"name":"Emilia Lucero","date":"2019-06-29T20:16:13.931629-07:00","comment":"I think I might like ice cream","location":{"latitude":45.403194427490234,"longitude":-75.6882553100586,"country":"CA","region":"ON"},"likes":3,"responses":4}
{"name":"Remy Ellison","date":"2019-11-23T20:16:13.931629-08:00","comment":"I really hate camping","location":{"latitude":43.84546661376953,"longitude":-79.38094329833984,"country":"CA","region":"ON"},"likes":1,"responses":32}
{"name":"Benjamin Russell","date":"2019-12-21T20:16:13.931629-08:00","comment":"I like hiking","location":{"latitude":49.19322204589844,"longitude":-123.18128204345703,"country":"CA","region":"BC"},"likes":8,"responses":7}
{"name":"Layla Delacruz","date":"2019-10-20T20:16:13.931629-07:00","comment":"I like skiing","location":{"latitude":48.45147705078125,"longitude":-89.2537612915039,"country":"CA","region":"ON"},"likes":11,"responses":28}
{"name":"Frederick Kim","date":"2019-07-16T20:16:13.931629-07:00","comment":"I like tacos","location":{"latitude":48.415611267089844,"longitude":-123.37512969970703,"country":"CA","region":"BC"},"likes":7,"responses":18}
{"name":"Easton Wilcox","date":"2019-11-28T20:16:13.931629-08:00","comment":"I hate camping","location":{"latitude":53.91092300415039,"longitude":-122.7829360961914,"country":"CA","region":"BC"},"likes":41,"responses":2}
{"name":"Zoe Phelps","date":"2019-06-02T20:16:13.931629-07:00","comment":"I like ice cream","location":{"latitude":49.27906036376953,"longitude":-123.12562561035156,"country":"CA","region":"BC"},"likes":43,"responses":6}
{"name":"Beau Harris","date":"2020-03-04T20:16:13.931629-08:00","comment":"I like hiking","location":{"latitude":49.88631820678711,"longitude":-119.49524688720703,"country":"CA","region":"BC"},"likes":15,"responses":1}
{"name":"Jade Contreras","date":"2019-10-28T20:16:13.931629-07:00","comment":"Maybe I like long walks on the beach","location":{"latitude":45.3829345703125,"longitude":-75.69891357421875,"country":"CA","region":"ON"},"likes":24,"responses":1}
{"name":"Sawyer Hudson","date":"2019-05-27T20:16:13.931629-07:00","comment":"I hate long walks on the beach","location":{"latitude":49.2484016418457,"longitude":-123.15475463867188,"country":"CA","region":"BC"},"likes":35,"responses":38}
{"name":"Lily Drake","date":"2019-07-19T20:16:13.931629-07:00","comment":"I really hate camping","location":{"latitude":46.864540100097656,"longitude":-71.21437072753906,"country":"CA","region":"QC"},"likes":38,"responses":9}
{"name":"Gabriel Nixon","date":"2019-05-08T20:16:13.931629-07:00","comment":"I love skiing","location":{"latitude":48.4315299987793,"longitude":-123.32369232177734,"country":"CA","region":"BC"},"likes":24,"responses":1}
{"name":"Kayden Blanchard","date":"2019-12-28T20:16:13.931629-08:00","comment":"I really hate skiing","location":{"latitude":24.487939834594727,"longitude":54.37202072143555,"country":"AE","region":"AZ"},"likes":4,"responses":3}
{"name":"Samuel Richard","date":"2019-12-28T20:16:13.931629-08:00","comment":"Maybe I like ice cream","location":{"latitude":49.16366195678711,"longitude":-122.80064392089844,"country":"CA","region":"BC"},"likes":52,"responses":12}
{"name":"Piper Mcgrath","date":"2019-04-28T20:16:13.931629-07:00","comment":"I hate skiing","location":{"latitude":53.616363525390625,"longitude":-113.54177856445312,"country":"CA","region":"AB"},"likes":99,"responses":18}
{"name":"Emily Cisneros","date":"2020-01-21T20:16:13.931629-08:00","comment":"Maybe I like long walks on the beach","location":{"latitude":51.05457305908203,"longitude":-113.98198699951172,"country":"CA","region":"AB"},"likes":86,"responses":2}
{"name":"Eduardo Faulkner","date":"2019-04-23T20:16:13.931629-07:00","comment":"I like camping","location":{"latitude":43.689002990722656,"longitude":-79.3942642211914,"country":"CA","region":"ON"},"likes":1,"responses":28}
{"name":"Luke Pena","date":"2019-08-19T20:16:13.931629-07:00","comment":"I really hate hiking","location":{"latitude":49.17025375366211,"longitude":-123.18246459960938,"country":"CA","region":"BC"},"likes":1,"responses":5}
{"name":"Shawn Huffman","date":"2020-02-17T20:16:13.931629-08:00","comment":"Maybe I like long walks on the beach","location":{"latitude":50.904632568359375,"longitude":-114.05750274658203,"country":"CA","region":"AB"},"likes":107,"responses":11}
{"name":"Kingston Silva","date":"2019-11-23T20:16:13.931629-08:00","comment":"I really hate tacos","location":{"latitude":43.595664978027344,"longitude":-79.78632354736328,"country":"CA","region":"ON"},"likes":115,"responses":6}
{"name":"Cameron Hickman","date":"2019-11-09T20:16:13.931629-08:00","comment":"I like ice cream","location":{"latitude":44.007198333740234,"longitude":-79.44429779052734,"country":"CA","region":"ON"},"likes":22,"responses":1}
{"name":"Evelyn Woodward","date":"2019-06-11T20:16:13.931629-07:00","comment":"I like hiking","location":{"latitude":53.42543029785156,"longitude":-113.47547912597656,"country":"CA","region":"AB"},"likes":15,"responses":8}
{"name":"Alex Lang","date":"2019-09-07T20:16:13.931629-07:00","comment":"I hate hiking","location":{"latitude":49.3204231262207,"longitude":-123.07259368896484,"country":"CA","region":"BC"},"likes":9,"responses":82}
{"name":"Lincoln Mccormick","date":"2019-04-28T20:16:13.931629-07:00","comment":"I like hiking","location":{"latitude":49.37248229980469,"longitude":-123.0986557006836,"country":"CA","region":"BC"},"likes":22,"responses":4}
{"name":"Camden Berger","date":"2019-04-01T20:16:13.931629-07:00","comment":"I think I might like camping","location":{"latitude":43.4996452331543,"longitude":-80.19041442871094,"country":"CA","region":"ON"},"likes":123,"responses":1}
{"name":"Matilda Coleman","date":"2019-11-09T20:16:13.931629-08:00","comment":"I like camping","location":{"latitude":51.09354019165039,"longitude":-115.35652160644531,"country":"CA","region":"AB"},"likes":1,"responses":1}
{"name":"Kevin Saunders","date":"2019-07-26T20:16:13.931629-07:00","comment":"I hate tacos","location":{"latitude":43.09047317504883,"longitude":-79.07315826416016,"country":"CA","region":"ON"},"likes":1,"responses":2}
{"name":"Lorenzo Lane","date":"2019-05-01T20:16:13.931629-07:00","comment":"I hate long walks on the beach","location":{"latitude":43.397979736328125,"longitude":-79.74712371826172,"country":"CA","region":"ON"},"likes":1,"responses":52}
{"name":"Knox Gaines","date":"2020-02-29T20:16:13.931629-08:00","comment":"I really hate tacos","location":{"latitude":49.736568450927734,"longitude":-123.13388061523438,"country":"CA","region":"BC"},"likes":28,"responses":1}
{"name":"Camila Ali","date":"2019-07-23T20:16:13.931629-07:00","comment":"I like hiking","location":{"latitude":43.66241455078125,"longitude":-79.39532470703125,"country":"CA","region":"ON"},"likes":7,"responses":2}
{"name":"Mateo Lutz","date":"2019-12-08T20:16:13.931629-08:00","comment":"I love tacos","location":{"latitude":49.287567138671875,"longitude":-123.11988067626953,"country":"CA","region":"BC"},"likes":20,"responses":134}
{"name":"Connor Sosa","date":"2020-01-17T20:16:13.931629-08:00","comment":"I like camping","location":{"latitude":53.55955123901367,"longitude":-113.55361938476562,"country":"CA","region":"AB"},"likes":42,"responses":57}
{"name":"Viviana Acosta","date":"2019-04-22T20:16:13.931629-07:00","comment":"I like long walks on the beach","location":{"latitude":25.231090545654297,"longitude":55.32646942138672,"country":"AE","region":"DU"},"likes":31,"responses":18}
{"name":"Samuel Park","date":"2019-07-29T20:16:13.931629-07:00","comment":"I like skiing","location":{"latitude":43.816307067871094,"longitude":-79.29331970214844,"country":"CA","region":"ON"},"likes":1,"responses":1}
{"name":"Gracelyn Blevins","date":"2019-12-20T20:16:13.931629-08:00","comment":"I love tacos","location":{"latitude":49.285308837890625,"longitude":-123.12051391601562,"country":"CA","region":"BC"},"likes":5,"responses":2}
{"name":"Malcolm Willis","date":"2019-04-29T20:16:13.931629-07:00","comment":"I love camping","location":{"latitude":43.844417572021484,"longitude":-79.56007385253906,"country":"CA","region":"ON"},"likes":2,"responses":2}
{"name":"Jacob Odonnell","date":"2019-10-26T20:16:13.931629-07:00","comment":"I like camping","location":{"latitude":53.473968505859375,"longitude":-113.49275970458984,"country":"CA","region":"AB"},"likes":1,"responses":5}
{"name":"Hazel Golden","date":"2019-04-16T20:16:13.931629-07:00","comment":"I like hiking","location":{"latitude":43.52315902709961,"longitude":-79.89937591552734,"country":"CA","region":"ON"},"likes":1,"responses":22}
{"name":"Angelo Barajas","date":"2019-09-25T20:16:13.931629-07:00","comment":"I like long walks on the beach","location":{"latitude":51.05082702636719,"longitude":-114.07095336914062,"country":"CA","region":"AB"},"likes":98,"responses":3}
{"name":"Londyn Glover","date":"2019-07-03T20:16:13.931629-07:00","comment":"I like tacos","location":{"latitude":51.04887771606445,"longitude":-114.06514739990234,"country":"CA","region":"AB"},"likes":15,"responses":7}
{"name":"Travis Hodge","date":"2020-03-07T20:16:13.931629-08:00","comment":"I like hiking","location":{"latitude":44.28335189819336,"longitude":-78.33972930908203,"country":"CA","region":"ON"},"likes":21,"responses":11}
{"name":"Olivia Davidson","date":"2019-05-30T20:16:13.931629-07:00","comment":"I like ice cream","location":{"latitude":43.816307067871094,"longitude":-79.29331970214844,"country":"CA","region":"ON"},"likes":14,"responses":69}
{"name":"Millie Mccarthy","date":"2019-10-06T20:16:13.931629-07:00","comment":"I hate long walks on the beach","location":{"latitude":50.99585723876953,"longitude":-114.07347869873047,"country":"CA","region":"AB"},"likes":17,"responses":66}
{"name":"Jayden Macias","date":"2019-10-21T20:16:13.931629-07:00","comment":"I think I might like tacos","location":{"latitude":45.423248291015625,"longitude":-75.6876449584961,"country":"CA","region":"ON"},"likes":1,"responses":131}
{"name":"Omari Atkinson","date":"2019-09-26T20:16:13.931629-07:00","comment":"I really hate camping","location":{"latitude":49.351043701171875,"longitude":-123.25321197509766,"country":"CA","region":"BC"},"likes":15,"responses":3}
{"name":"Sophia Espinoza","date":"2020-01-16T20:16:13.931629-08:00","comment":"I really hate skiing","location":{"latitude":49.124019622802734,"longitude":-123.18085479736328,"country":"CA","region":"BC"},"likes":28,"responses":69}
{"name":"Aiden Maddox","date":"2020-02-28T20:16:13.931629-08:00","comment":"I really hate tacos","location":{"latitude":51.15685272216797,"longitude":-114.16036224365234,"country":"CA","region":"AB"},"likes":1,"responses":45}
{"name":"Jacob Wang","date":"2020-02-23T20:16:13.931629-08:00","comment":"I like hiking","location":{"latitude":53.445159912109375,"longitude":-113.49102783203125,"country":"CA","region":"AB"},"likes":45,"responses":25}
{"name":"Levi Simon","date":"2019-03-24T20:16:13.931629-07:00","comment":"Maybe I like camping","location":{"latitude":49.28443908691406,"longitude":-123.10851287841797,"country":"CA","region":"BC"},"likes":6,"responses":38}
{"name":"Skylar Kaiser","date":"2019-04-24T20:16:13.931629-07:00","comment":"I like long walks on the beach","location":{"latitude":-34.56881332397461,"longitude":-58.44374465942383,"country":"AR","region":"C"},"likes":37,"responses":77}
{"name":"Aspen Burke","date":"2019-08-04T20:16:13.931629-07:00","comment":"I think I might like skiing","location":{"latitude":24.924592971801758,"longitude":54.99717712402344,"country":"AE","region":"DU"},"likes":60,"responses":14}
{"name":"Margaret Curtis","date":"2019-12-18T20:16:13.931629-08:00","comment":"Maybe I like camping","location":{"latitude":52.168460845947266,"longitude":-106.63980865478516,"country":"CA","region":"SK"},"likes":124,"responses":43}
{"name":"Ava Richard","date":"2019-10-11T20:16:13.931629-07:00","comment":"I hate skiing","location":{"latitude":43.66241455078125,"longitude":-79.39532470703125,"country":"CA","region":"ON"},"likes":77,"responses":76}
{"name":"Joel Vaughan","date":"2019-09-14T20:16:13.931629-07:00","comment":"I love ice cream","location":{"latitude":49.228607177734375,"longitude":-122.8929443359375,"country":"CA","region":"BC"},"likes":133,"responses":32}
{"name":"Isaiah Mata","date":"2019-09-24T20:16:13.931629-07:00","comment":"I really hate skiing","location":{"latitude":53.513206481933594,"longitude":-113.32442474365234,"country":"CA","region":"AB"},"likes":1,"responses":12}
{"name":"Carter Ortiz","date":"2019-03-26T20:16:13.931629-07:00","comment":"I love skiing","location":{"latitude":45.56890869140625,"longitude":-73.72633361816406,"country":"CA","region":"QC"},"likes":78,"responses":9}
{"name":"Levi Watts","date":"2019-05-24T20:16:13.931629-07:00","comment":"I love long walks on the beach","location":{"latitude":-34.56881332397461,"longitude":-58.44374465942383,"country":"AR","region":"C"},"likes":14,"responses":148}
{"name":"Genevieve Newton","date":"2019-10-30T20:16:13.931629-07:00","comment":"I like ice cream","location":{"latitude":48.20581817626953,"longitude":16.385847091674805,"country":"AT","region":"9"},"likes":17,"responses":1}
{"name":"Roman Luna","date":"2019-09-25T20:16:13.931629-07:00","comment":"I really hate tacos","location":{"latitude":25.252574920654297,"longitude":55.3539924621582,"country":"AE","region":"DU"},"likes":8,"responses":90}
{"name":"Emma Shelton","date":"2019-11-13T20:16:13.931629-08:00","comment":"I love ice cream","location":{"latitude":44.01841354370117,"longitude":-79.44744110107422,"country":"CA","region":"ON"},"likes":3,"responses":70}
{"name":"Makayla Hebert","date":"2019-07-10T20:16:13.931629-07:00","comment":"I hate hiking","location":{"latitude":45.393394470214844,"longitude":-75.68305969238281,"country":"CA","region":"ON"},"likes":11,"responses":1}
{"name":"Jace Johnston","date":"2019-04-08T20:16:13.931629-07:00","comment":"Maybe I like camping","location":{"latitude":25.074939727783203,"longitude":55.13261032104492,"country":"AE","region":"DU"},"likes":14,"responses":1}
{"name":"Kaia Hood","date":"2019-03-11T20:16:13.931629-07:00","comment":"I like long walks on the beach","location":{"latitude":45.473785400390625,"longitude":-73.83560180664062,"country":"CA","region":"QC"},"likes":14,"responses":5}
{"name":"Julian Trevino","date":"2019-06-12T20:16:13.931629-07:00","comment":"I hate tacos","location":{"latitude":45.45729064941406,"longitude":-73.75273132324219,"country":"CA","region":"QC"},"likes":1,"responses":4}
{"name":"Jayden Steele","date":"2019-08-26T20:16:13.931629-07:00","comment":"I like tacos","location":{"latitude":45.421382904052734,"longitude":-75.69365692138672,"country":"CA","region":"ON"},"likes":19,"responses":10}
{"name":"Paul Richmond","date":"2019-09-08T20:16:13.931629-07:00","comment":"I really hate skiing","location":{"latitude":51.04063034057617,"longitude":-114.0655746459961,"country":"CA","region":"AB"},"likes":3,"responses":2}
{"name":"Christopher Clayton","date":"2019-03-24T20:16:13.931629-07:00","comment":"Maybe I like hiking","location":{"latitude":24.471330642700195,"longitude":54.37234115600586,"country":"AE","region":"AZ"},"likes":12,"responses":30}
{"name":"Nathan Rogers","date":"2019-08-07T20:16:13.931629-07:00","comment":"I like skiing","location":{"latitude":49.11996841430664,"longitude":-122.89212799072266,"country":"CA","region":"BC"},"likes":18,"responses":1}
{"name":"Julian Warren","date":"2019-03-16T20:16:13.931629-07:00","comment":"I like hiking","location":{"latitude":43.54987716674805,"longitude":-79.58727264404297,"country":"CA","region":"ON"},"likes":13,"responses":50}
{"name":"Elias Hood","date":"2020-03-06T20:16:13.931629-08:00","comment":"I hate skiing","location":{"latitude":49.25164794921875,"longitude":-122.8960189819336,"country":"CA","region":"BC"},"likes":133,"responses":33}
{"name":"Alonzo Hampton","date":"2019-06-03T20:16:13.931629-07:00","comment":"I like skiing","location":{"latitude":43.81710433959961,"longitude":-79.42430114746094,"country":"CA","region":"ON"},"likes":74,"responses":7}
{"name":"Madeline Cannon","date":"2019-03-14T20:16:13.931629-07:00","comment":"I like tacos","location":{"latitude":49.26902389526367,"longitude":-123.1460189819336,"country":"CA","region":"BC"},"likes":106,"responses":1}
{"name":"Avery Kim","date":"2020-01-30T20:16:13.931629-08:00","comment":"I hate tacos","location":{"latitude":43.64657974243164,"longitude":-79.5140380859375,"country":"CA","region":"ON"},"likes":6,"responses":3}
{"name":"Luna Roman","date":"2019-10-22T20:16:13.931629-07:00","comment":"I hate camping","location":{"latitude":50.985416412353516,"longitude":-114.08255767822266,"country":"CA","region":"AB"},"likes":4,"responses":1}
{"name":"Alyssa Pineda","date":"2019-11-24T20:16:13.931629-08:00","comment":"I think I might like ice cream","location":{"latitude":43.45756912231445,"longitude":-79.67861938476562,"country":"CA","region":"ON"},"likes":2,"responses":25}
{"name":"Lillian Mccall","date":"2019-08-17T20:16:13.931629-07:00","comment":"I love skiing","location":{"latitude":26.144689559936523,"longitude":50.57902145385742,"country":"BH","region":"14"},"likes":2,"responses":9}
{"name":"Lily Cordova","date":"2019-11-11T20:16:13.931629-08:00","comment":"I like camping","location":{"latitude":53.513206481933594,"longitude":-113.32442474365234,"country":"CA","region":"AB"},"likes":11,"responses":78}
{"name":"Jonathan Brewer","date":"2020-01-23T20:16:13.931629-08:00","comment":"I think I might like hiking","location":{"latitude":43.07898712158203,"longitude":-79.08233642578125,"country":"CA","region":"ON"},"likes":6,"responses":39}
{"name":"Mila Buchanan","date":"2019-10-09T20:16:13.931629-07:00","comment":"Maybe I like long walks on the beach","location":{"latitude":51.11642837524414,"longitude":-114.06890106201172,"country":"CA","region":"AB"},"likes":1,"responses":74}
{"name":"Brielle Carlson","date":"2019-05-22T20:16:13.931629-07:00","comment":"I like tacos","location":{"latitude":43.70758819580078,"longitude":-79.39826202392578,"country":"CA","region":"ON"},"likes":3,"responses":13}
{"name":"Adaline Braun","date":"2019-11-17T20:16:13.931629-08:00","comment":"I like hiking","location":{"latitude":26.20639991760254,"longitude":50.57619094848633,"country":"BH","region":"13"},"likes":55,"responses":28}
{"name":"Austin Lyons","date":"2019-08-08T20:16:13.931629-07:00","comment":"Maybe I like hiking","location":{"latitude":49.781532287597656,"longitude":-92.8388442993164,"country":"CA","region":"ON"},"likes":1,"responses":18}
{"name":"Easton Peterson","date":"2019-04-15T20:16:13.931629-07:00","comment":"I think I might like long walks on the beach","location":{"latitude":48.476600646972656,"longitude":-123.33281707763672,"country":"CA","region":"BC"},"likes":3,"responses":30}
{"name":"Everly Ware","date":"2020-01-12T20:16:13.931629-08:00","comment":"I really hate tacos","location":{"latitude":43.757999420166016,"longitude":-79.40977478027344,"country":"CA","region":"ON"},"likes":113,"responses":70}
{"name":"Anna Meyers","date":"2020-02-25T20:16:13.931629-08:00","comment":"Maybe I like skiing","location":{"latitude":52.263450622558594,"longitude":-113.81407928466797,"country":"CA","region":"AB"},"likes":7,"responses":11}
{"name":"Bentley Quinn","date":"2020-02-26T20:16:13.931629-08:00","comment":"I really hate hiking","location":{"latitude":49.31498718261719,"longitude":-122.954345703125,"country":"CA","region":"BC"},"likes":19,"responses":26}
{"name":"Victoria Jimenez","date":"2019-06-13T20:16:13.931629-07:00","comment":"I think I might like long walks on the beach","location":{"latitude":43.079280853271484,"longitude":-79.08258819580078,"country":"CA","region":"ON"},"likes":100,"responses":14}
{"name":"Emma Wiggins","date":"2019-10-14T20:16:13.931629-07:00","comment":"I think I might like hiking","location":{"latitude":24.4993896484375,"longitude":54.37015151977539,"country":"AE","region":"AZ"},"likes":140,"responses":1}
{"name":"Adaline Copeland","date":"2020-01-10T20:16:13.931629-08:00","comment":"I think I might like skiing","location":{"latitude":51.052608489990234,"longitude":-114.0875244140625,"country":"CA","region":"AB"},"likes":2,"responses":11}
{"name":"Eliza Serrano","date":"2019-12-01T20:16:13.931629-08:00","comment":"I love tacos","location":{"latitude":45.311607360839844,"longitude":-75.91413879394531,"country":"CA","region":"ON"},"likes":39,"responses":4}
{"name":"Giovanni Estes","date":"2020-02-12T20:16:13.931629-08:00","comment":"Maybe I like hiking","location":{"latitude":49.132484436035156,"longitude":-122.84010314941406,"country":"CA","region":"BC"},"likes":1,"responses":135}
{"name":"Charles Strong","date":"2020-03-03T20:16:13.931629-08:00","comment":"I hate long walks on the beach","location":{"latitude":45.500221252441406,"longitude":-73.50867462158203,"country":"CA","region":"QC"},"likes":1,"responses":111}
{"name":"Richard Rangel","date":"2019-09-27T20:16:13.931629-07:00","comment":"I like long walks on the beach","location":{"latitude":43.651336669921875,"longitude":-79.37468719482422,"country":"CA","region":"ON"},"likes":3,"responses":55}
{"name":"Paislee Choi","date":"2020-01-19T20:16:13.931629-08:00","comment":"I like long walks on the beach","location":{"latitude":43.89403533935547,"longitude":-78.87904357910156,"country":"CA","region":"ON"},"likes":32,"responses":23}
{"name":"Maddison Freeman","date":"2020-02-29T20:16:13.931629-08:00","comment":"I love skiing","location":{"latitude":26.23657989501953,"longitude":50.5771598815918,"country":"BH","region":"13"},"likes":4,"responses":71}
{"name":"Asher Harrington","date":"2020-02-04T20:16:13.931629-08:00","comment":"I really hate hiking","location":{"latitude":43.66913986206055,"longitude":-79.38896942138672,"country":"CA","region":"ON"},"likes":1,"responses":26}
{"name":"Ella Sims","date":"2019-05-26T20:16:13.931629-07:00","comment":"Maybe I like long walks on the beach","location":{"latitude":44.009403228759766,"longitude":-79.47059631347656,"country":"CA","region":"ON"},"likes":16,"responses":9}
{"name":"Eliana Randolph","date":"2019-07-02T20:16:13.931629-07:00","comment":"I hate camping","location":{"latitude":53.54115295410156,"longitude":-113.493408203125,"country":"CA","region":"AB"},"likes":90,"responses":2}
{"name":"Sylvia Humphrey","date":"2019-05-03T20:16:13.931629-07:00","comment":"I really hate camping","location":{"latitude":45.494529724121094,"longitude":-73.57801055908203,"country":"CA","region":"QC"},"likes":4,"responses":5}
{"name":"Aiden Mathis","date":"2019-03-26T20:16:13.931629-07:00","comment":"I like tacos","location":{"latitude":51.049503326416016,"longitude":-114.06819152832031,"country":"CA","region":"AB"},"likes":58,"responses":30}
{"name":"Karter Moody","date":"2019-12-31T20:16:13.931629-08:00","comment":"I like long walks on the beach","location":{"latitude":50.67171859741211,"longitude":-120.33413696289062,"country":"CA","region":"BC"},"likes":4,"responses":10}
{"name":"Angelina Randolph","date":"2019-09-28T20:16:13.931629-07:00","comment":"I think I might like ice cream","location":{"latitude":49.2630615234375,"longitude":-123.11514282226562,"country":"CA","region":"BC"},"likes":28,"responses":33}
{"name":"Hope Ballard","date":"2020-02-15T20:16:13.931629-08:00","comment":"I love ice cream","location":{"latitude":22.28445053100586,"longitude":114.15846252441406,"country":"CN","region":"91"},"likes":1,"responses":15}
{"name":"Tessa Ochoa","date":"2019-03-26T20:16:13.931629-07:00","comment":"I really hate tacos","location":{"latitude":49.28387451171875,"longitude":-122.82792663574219,"country":"CA","region":"BC"},"likes":14,"responses":117}
{"name":"Mateo Montgomery","date":"2020-01-28T20:16:13.931629-08:00","comment":"Maybe I like skiing","location":{"latitude":49.3204231262207,"longitude":-123.07259368896484,"country":"CA","region":"BC"},"likes":82,"responses":4}
{"name":"Owen Macias","date":"2019-07-28T20:16:13.931629-07:00","comment":"I like long walks on the beach","location":{"latitude":49.26802062988281,"longitude":-123.15667724609375,"country":"CA","region":"BC"},"likes":18,"responses":13}
{"name":"Andrew Cruz","date":"2020-01-24T20:16:13.931629-08:00","comment":"I like hiking","location":{"latitude":44.26347351074219,"longitude":-76.49800872802734,"country":"CA","region":"ON"},"likes":1,"responses":93}
{"name":"Elaina Becker","date":"2020-02-26T20:16:13.931629-08:00","comment":"I like tacos","location":{"latitude":51.092750549316406,"longitude":-115.3576889038086,"country":"CA","region":"AB"},"likes":11,"responses":60}
{"name":"Ava Christian","date":"2019-12-28T20:16:13.931629-08:00","comment":"I like camping","location":{"latitude":43.670082092285156,"longitude":-79.38850402832031,"country":"CA","region":"ON"},"likes":16,"responses":2}
{"name":"Quinn Golden","date":"2019-04-14T20:16:13.931629-07:00","comment":"I hate long walks on the beach","location":{"latitude":43.902957916259766,"longitude":-80.11981964111328,"country":"CA","region":"ON"},"likes":4,"responses":8}
{"name":"Charlie Schroeder","date":"2019-07-21T20:16:13.931629-07:00","comment":"I like skiing","location":{"latitude":43.85061264038086,"longitude":-79.3529052734375,"country":"CA","region":"ON"},"likes":139,"responses":4}
{"name":"Michelle Buckley","date":"2019-07-08T20:16:13.931629-07:00","comment":"I like tacos","location":{"latitude":42.311859130859375,"longitude":-82.94622039794922,"country":"CA","region":"ON"},"likes":16,"responses":16}
{"name":"Ezra Jones","date":"2019-03-29T20:16:13.931629-07:00","comment":"Maybe I like ice cream","location":{"latitude":43.69845962524414,"longitude":-79.39639282226562,"country":"CA","region":"ON"},"likes":8,"responses":107}
{"name":"Titus Baxter","date":"2019-07-12T20:16:13.931629-07:00","comment":"I like long walks on the beach","location":{"latitude":49.33412170410156,"longitude":-123.17990112304688,"country":"CA","region":"BC"},"likes":1,"responses":10}
{"name":"Grace Mora","date":"2020-03-03T20:16:13.931629-08:00","comment":"Maybe I like tacos","location":{"latitude":45.50080871582031,"longitude":-73.57364654541016,"country":"CA","region":"QC"},"likes":24,"responses":54}
{"name":"Emily Woods","date":"2020-02-08T20:16:13.931629-08:00","comment":"I love tacos","location":{"latitude":51.04517364501953,"longitude":-114.06932067871094,"country":"CA","region":"AB"},"likes":46,"responses":53}
{"name":"Lucas Haney","date":"2020-03-01T20:16:13.931629-08:00","comment":"I like hiking","location":{"latitude":53.5247688293457,"longitude":-113.5306167602539,"country":"CA","region":"AB"},"likes":28,"responses":1}
{"name":"Charles Mcgrath","date":"2019-05-05T20:16:13.931629-07:00","comment":"I really hate camping","location":{"latitude":43.84494400024414,"longitude":-79.47059631347656,"country":"CA","region":"ON"},"likes":1,"responses":17}
{"name":"Holden Ballard","date":"2019-06-24T20:16:13.931629-07:00","comment":"I like camping","location":{"latitude":49.26637649536133,"longitude":-124.78571319580078,"country":"CA","region":"BC"},"likes":4,"responses":7}
{"name":"Mackenzie Hendrix","date":"2019-09-05T20:16:13.931629-07:00","comment":"I like ice cream","location":{"latitude":44.34681701660156,"longitude":-79.70338439941406,"country":"CA","region":"ON"},"likes":85,"responses":34}
{"name":"Adalynn Orozco","date":"2019-06-02T20:16:13.931629-07:00","comment":"I like tacos","location":{"latitude":53.53902816772461,"longitude":-113.50438690185547,"country":"CA","region":"AB"},"likes":3,"responses":41}
{"name":"Emily Mullins","date":"2019-08-16T20:16:13.931629-07:00","comment":"I hate long walks on the beach","location":{"latitude":46.76841354370117,"longitude":-71.2867202758789,"country":"CA","region":"QC"},"likes":41,"responses":134}
{"name":"Axel Moreno","date":"2019-10-04T20:16:13.931629-07:00","comment":"I hate skiing","location":{"latitude":49.28836441040039,"longitude":-123.11762237548828,"country":"CA","region":"BC"},"likes":3,"responses":15}
{"name":"Nathaniel Maxwell","date":"2019-06-22T20:16:13.931629-07:00","comment":"I think I might like hiking","location":{"latitude":25.252574920654297,"longitude":55.3539924621582,"country":"AE","region":"DU"},"likes":14,"responses":26}
{"name":"Alana Murphy","date":"2019-03-30T20:16:13.931629-07:00","comment":"I really hate long walks on the beach","location":{"latitude":50.145355224609375,"longitude":-96.87305450439453,"country":"CA","region":"MB"},"likes":132,"responses":1}
{"name":"Nathaniel Summers","date":"2019-06-07T20:16:13.931629-07:00","comment":"I like camping","location":{"latitude":43.71101760864258,"longitude":-79.3990249633789,"country":"CA","region":"ON"},"likes":23,"responses":2}
{"name":"Jayce Mclaughlin","date":"2019-08-23T20:16:13.931629-07:00","comment":"Maybe I like ice cream","location":{"latitude":52.9797248840332,"longitude":-122.49701690673828,"country":"CA","region":"BC"},"likes":1,"responses":6}
{"name":"Ellie Graves","date":"2019-03-18T20:16:13.931629-07:00","comment":"I love skiing","location":{"latitude":53.409141540527344,"longitude":-117.58637237548828,"country":"CA","region":"AB"},"likes":32,"responses":121}
{"name":"Hannah Raymond","date":"2019-10-29T20:16:13.931629-07:00","comment":"I like skiing","location":{"latitude":49.027992248535156,"longitude":-122.26580047607422,"country":"CA","region":"BC"},"likes":94,"responses":1}
{"name":"Aria Horton","date":"2019-12-26T20:16:13.931629-08:00","comment":"I like ice cream","location":{"latitude":-34.600730895996094,"longitude":-58.39143753051758,"country":"AR","region":"C"},"likes":4,"responses":1}
{"name":"Mason Willis","date":"2019-05-30T20:16:13.931629-07:00","comment":"I really hate camping","location":{"latitude":43.48740005493164,"longitude":-79.71824645996094,"country":"CA","region":"ON"},"likes":9,"responses":1}
{"name":"Zara Rosales","date":"2019-07-18T20:16:13.931629-07:00","comment":"I like camping","location":{"latitude":49.8417854309082,"longitude":-124.51882934570312,"country":"CA","region":"BC"},"likes":4,"responses":1}
{"name":"Nolan Dawson","date":"2019-11-28T20:16:13.931629-08:00","comment":"I think I might like hiking","location":{"latitude":45.413150787353516,"longitude":-75.64689636230469,"country":"CA","region":"ON"},"likes":15,"responses":50}
{"name":"Noel Pollard","date":"2019-09-20T20:16:13.931629-07:00","comment":"I love long walks on the beach","location":{"latitude":49.28443908691406,"longitude":-123.10851287841797,"country":"CA","region":"BC"},"likes":71,"responses":1}
{"name":"Jude Frye","date":"2019-07-29T20:16:13.931629-07:00","comment":"I love hiking","location":{"latitude":48.42494583129883,"longitude":-123.36668395996094,"country":"CA","region":"BC"},"likes":78,"responses":95}
{"name":"Liam Medina","date":"2019-04-26T20:16:13.931629-07:00","comment":"I really hate hiking","location":{"latitude":49.26823043823242,"longitude":-123.1708755493164,"country":"CA","region":"BC"},"likes":12,"responses":2}
{"name":"Juan Andersen","date":"2019-08-30T20:16:13.931629-07:00","comment":"I like skiing","location":{"latitude":45.35673141479492,"longitude":-75.65583038330078,"country":"CA","region":"ON"},"likes":3,"responses":21}
{"name":"Bennett Stone","date":"2019-03-27T20:16:13.931629-07:00","comment":"I really hate hiking","location":{"latitude":52.9797248840332,"longitude":-122.49701690673828,"country":"CA","region":"BC"},"likes":2,"responses":3}
{"name":"Emma Allison","date":"2020-02-20T20:16:13.931629-08:00","comment":"I love hiking","location":{"latitude":49.10242462158203,"longitude":-122.64456176757812,"country":"CA","region":"BC"},"likes":17,"responses":17}
{"name":"Mia Roth","date":"2019-10-05T20:16:13.931629-07:00","comment":"I hate tacos","location":{"latitude":44.28153991699219,"longitude":-78.34574127197266,"country":"CA","region":"ON"},"likes":4,"responses":81}
{"name":"Isaac Moss","date":"2019-04-10T20:16:13.931629-07:00","comment":"I like long walks on the beach","location":{"latitude":49.28178405761719,"longitude":-123.12458801269531,"country":"CA","region":"BC"},"likes":7,"responses":8}
{"name":"Genesis Conway","date":"2019-06-24T20:16:13.931629-07:00","comment":"I like camping","location":{"latitude":49.28035354614258,"longitude":-123.130859375,"country":"CA","region":"BC"},"likes":11,"responses":16}
{"name":"Avah Hays","date":"2019-12-24T20:16:13.931629-08:00","comment":"I love skiing","location":{"latitude":53.55955123901367,"longitude":-113.55361938476562,"country":"CA","region":"AB"},"likes":2,"responses":22}
{"name":"Abel Mendoza","date":"2019-12-03T20:16:13.931629-08:00","comment":"I like ice cream","location":{"latitude":49.28376007080078,"longitude":-122.81070709228516,"country":"CA","region":"BC"},"likes":45,"responses":4}
{"name":"Brody Molina","date":"2019-07-19T20:16:13.931629-07:00","comment":"Maybe I like long walks on the beach","location":{"latitude":53.42543029785156,"longitude":-113.47547912597656,"country":"CA","region":"AB"},"likes":5,"responses":1}
{"name":"Theo Chan","date":"2019-10-12T20:16:13.931629-07:00","comment":"I like skiing","location":{"latitude":49.67778778076172,"longitude":-112.80197143554688,"country":"CA","region":"AB"},"likes":27,"responses":2}
{"name":"Kyla Roberts","date":"2020-02-10T20:16:13.931629-08:00","comment":"I like tacos","location":{"latitude":43.664939880371094,"longitude":-79.36840057373047,"country":"CA","region":"ON"},"likes":1,"responses":47}
{"name":"Evangeline Blackwell","date":"2019-05-24T20:16:13.931629-07:00","comment":"I like hiking","location":{"latitude":51.04815673828125,"longitude":-114.06747436523438,"country":"CA","region":"AB"},"likes":3,"responses":2}
{"name":"Cooper Rowland","date":"2020-01-23T20:16:13.931629-08:00","comment":"Maybe I like ice cream","location":{"latitude":43.664981842041016,"longitude":-79.38050842285156,"country":"CA","region":"ON"},"likes":8,"responses":27}
{"name":"George Estrada","date":"2019-03-29T20:16:13.931629-07:00","comment":"I hate skiing","location":{"latitude":48.64875030517578,"longitude":-123.39762878417969,"country":"CA","region":"BC"},"likes":8,"responses":11}
{"name":"Grayson Dalton","date":"2020-02-11T20:16:13.931629-08:00","comment":"I hate long walks on the beach","location":{"latitude":43.779884338378906,"longitude":-79.41622161865234,"country":"CA","region":"ON"},"likes":31,"responses":9}
{"name":"Patrick Abbott","date":"2019-03-28T20:16:13.931629-07:00","comment":"Maybe I like hiking","location":{"latitude":45.49787902832031,"longitude":-73.70343017578125,"country":"CA","region":"QC"},"likes":50,"responses":1}
{"name":"Chase Zavala","date":"2019-03-15T20:16:13.931629-07:00","comment":"I like long walks on the beach","location":{"latitude":43.70761489868164,"longitude":-79.398681640625,"country":"CA","region":"ON"},"likes":17,"responses":11}
{"name":"Ryan Pineda","date":"2019-11-03T20:16:13.931629-08:00","comment":"I like tacos","location":{"latitude":54.3149299621582,"longitude":-130.32330322265625,"country":"CA","region":"BC"},"likes":78,"responses":8}
{"name":"Jace Pittman","date":"2019-12-31T20:16:13.931629-08:00","comment":"I love ice cream","location":{"latitude":43.72981643676758,"longitude":-79.40364837646484,"country":"CA","region":"ON"},"likes":2,"responses":9}
{"name":"Emery Maynard","date":"2019-07-22T20:16:13.931629-07:00","comment":"I hate camping","location":{"latitude":48.42407989501953,"longitude":-123.3621597290039,"country":"CA","region":"BC"},"likes":6,"responses":5}
{"name":"Charlotte Combs","date":"2020-03-02T20:16:13.931629-08:00","comment":"I love ice cream","location":{"latitude":45.41609191894531,"longitude":-75.68901062011719,"country":"CA","region":"ON"},"likes":63,"responses":7}
{"name":"Ava Bowman","date":"2019-10-31T20:16:13.931629-07:00","comment":"I hate camping","location":{"latitude":22.280019760131836,"longitude":114.17261505126953,"country":"CN","region":"91"},"likes":35,"responses":1}
{"name":"James Hall","date":"2020-03-03T20:16:13.931629-08:00","comment":"I like hiking","location":{"latitude":43.79410934448242,"longitude":-79.44559478759766,"country":"CA","region":"ON"},"likes":19,"responses":44}
{"name":"Andrea Pennington","date":"2019-10-29T20:16:13.931629-07:00","comment":"I like ice cream","location":{"latitude":53.50413513183594,"longitude":-113.61474609375,"country":"CA","region":"AB"},"likes":99,"responses":101}
{"name":"Ariana Brown","date":"2020-02-10T20:16:13.931629-08:00","comment":"I like ice cream","location":{"latitude":49.104610443115234,"longitude":-122.80220031738281,"country":"CA","region":"BC"},"likes":1,"responses":16}
{"name":"Titus Stanton","date":"2020-01-14T20:16:13.931629-08:00","comment":"I hate skiing","location":{"latitude":43.22675323486328,"longitude":-79.95420837402344,"country":"CA","region":"ON"},"likes":36,"responses":54}
{"name":"Aaron Larsen","date":"2019-07-05T20:16:13.931629-07:00","comment":"Maybe I like long walks on the beach","location":{"latitude":25.067859649658203,"longitude":-77.32792663574219,"country":"BS","region":"NS"},"likes":3,"responses":4}
{"name":"Maggie Nichols","date":"2019-03-09T20:16:13.931629-08:00","comment":"I hate ice cream","location":{"latitude":51.148475646972656,"longitude":-114.07150268554688,"country":"CA","region":"AB"},"likes":1,"responses":12}
{"name":"Jake Foster","date":"2020-01-22T20:16:13.931629-08:00","comment":"I like ice cream","location":{"latitude":26.234920501708984,"longitude":50.55458068847656,"country":"BH","region":"13"},"likes":6,"responses":129}
{"name":"Gregory Davis","date":"2019-03-10T20:16:13.931629-07:00","comment":"I like ice cream","location":{"latitude":49.15479278564453,"longitude":-123.15817260742188,"country":"CA","region":"BC"},"likes":59,"responses":96}
{"name":"Riley Hahn","date":"2019-10-16T20:16:13.931629-07:00","comment":"I like hiking","location":{"latitude":49.94489669799805,"longitude":-97.15769958496094,"country":"CA","region":"MB"},"likes":2,"responses":53}
{"name":"Leah Herring","date":"2019-09-15T20:16:13.931629-07:00","comment":"I hate ice cream","location":{"latitude":50.02891540527344,"longitude":-125.24971008300781,"country":"CA","region":"BC"},"likes":2,"responses":116}
{"name":"Samuel Hodge","date":"2020-02-20T20:16:13.931629-08:00","comment":"I hate camping","location":{"latitude":43.67992401123047,"longitude":-79.34051513671875,"country":"CA","region":"ON"},"likes":25,"responses":8}
{"name":"Grace Lester","date":"2020-01-14T20:16:13.931629-08:00","comment":"I love skiing","location":{"latitude":45.46293258666992,"longitude":-73.8303451538086,"country":"CA","region":"QC"},"likes":139,"responses":30}
{"name":"Cameron Monroe","date":"2019-08-17T20:16:13.931629-07:00","comment":"I like long walks on the beach","location":{"latitude":26.241689682006836,"longitude":50.58797836303711,"country":"BH","region":"13"},"likes":42,"responses":5}
{"name":"Violet Henson","date":"2020-02-10T20:16:13.931629-08:00","comment":"I really hate skiing","location":{"latitude":51.13785934448242,"longitude":-114.15765380859375,"country":"CA","region":"AB"},"likes":1,"responses":92}
{"name":"Luna Boone","date":"2019-05-21T20:16:13.931629-07:00","comment":"Maybe I like skiing","location":{"latitude":51.04195022583008,"longitude":-114.13941955566406,"country":"CA","region":"AB"},"likes":30,"responses":5}
{"name":"Ryleigh Vaughan","date":"2019-11-26T20:16:13.931629-08:00","comment":"I hate tacos","location":{"latitude":49.291263580322266,"longitude":-123.13545227050781,"country":"CA","region":"BC"},"likes":6,"responses":38}
{"name":"Camila Thompson","date":"2019-08-03T20:16:13.931629-07:00","comment":"I hate skiing","location":{"latitude":50.5721549987793,"longitude":-111.90172576904297,"country":"CA","region":"AB"},"likes":1,"responses":3}
{"name":"Jacob Dudley","date":"2020-02-14T20:16:13.931629-08:00","comment":"I think I might like ice cream","location":{"latitude":49.04676818847656,"longitude":-122.77655792236328,"country":"CA","region":"BC"},"likes":19,"responses":27}
{"name":"Ella Ponce","date":"2019-10-30T20:16:13.931629-07:00","comment":"I hate camping","location":{"latitude":51.04276657104492,"longitude":-114.07111358642578,"country":"CA","region":"AB"},"likes":40,"responses":12}
{"name":"Nyla Perez","date":"2020-01-08T20:16:13.931629-08:00","comment":"I like camping","location":{"latitude":49.26087188720703,"longitude":-123.1257553100586,"country":"CA","region":"BC"},"likes":10,"responses":1}
{"name":"Fatima Larson","date":"2020-02-09T20:16:13.931629-08:00","comment":"Maybe I like ice cream","location":{"latitude":25.25663948059082,"longitude":55.455848693847656,"country":"AE","region":"DU"},"likes":39,"responses":138}
{"name":"Nicolas Waters","date":"2019-08-25T20:16:13.931629-07:00","comment":"I like tacos","location":{"latitude":49.28035354614258,"longitude":-123.130859375,"country":"CA","region":"BC"},"likes":58,"responses":3}
{"name":"Rowan Shaw","date":"2019-07-03T20:16:13.931629-07:00","comment":"I think I might like ice cream","location":{"latitude":43.08649444580078,"longitude":-79.07962799072266,"country":"CA","region":"ON"},"likes":10,"responses":6}
{"name":"Archer Carey","date":"2019-06-07T20:16:13.931629-07:00","comment":"I think I might like ice cream","location":{"latitude":49.28443908691406,"longitude":-123.10851287841797,"country":"CA","region":"BC"},"likes":1,"responses":3}
{"name":"Hayden Garner","date":"2019-05-02T20:16:13.931629-07:00","comment":"I really hate long walks on the beach","location":{"latitude":49.3204231262207,"longitude":-123.07259368896484,"country":"CA","region":"BC"},"likes":23,"responses":10}
{"name":"Chase Brandt","date":"2019-10-08T20:16:13.931629-07:00","comment":"I like tacos","location":{"latitude":50.953086853027344,"longitude":-114.06468200683594,"country":"CA","region":"AB"},"likes":2,"responses":1}
{"name":"Spencer Nelson","date":"2020-01-20T20:16:13.931629-08:00","comment":"I like skiing","location":{"latitude":53.546390533447266,"longitude":-113.48876190185547,"country":"CA","region":"AB"},"likes":2,"responses":44}
{"name":"Avery Goodman","date":"2019-05-09T20:16:13.931629-07:00","comment":"I really hate skiing","location":{"latitude":49.160247802734375,"longitude":-122.66716003417969,"country":"CA","region":"BC"},"likes":6,"responses":2}
{"name":"Ava Austin","date":"2019-07-11T20:16:13.931629-07:00","comment":"Maybe I like skiing","location":{"latitude":43.50906753540039,"longitude":-79.63147735595703,"country":"CA","region":"ON"},"likes":48,"responses":3}
{"name":"Lucas Mullins","date":"2019-04-01T20:16:13.931629-07:00","comment":"I think I might like tacos","location":{"latitude":43.822601318359375,"longitude":-79.3259048461914,"country":"CA","region":"ON"},"likes":2,"responses":29}
{"name":"Landon Lewis","date":"2019-11-27T20:16:13.931629-08:00","comment":"I love hiking","location":{"latitude":51.13785934448242,"longitude":-114.15765380859375,"country":"CA","region":"AB"},"likes":11,"responses":57}
{"name":"Amelia Giles","date":"2019-03-14T20:16:13.931629-07:00","comment":"I really hate ice cream","location":{"latitude":25.345050811767578,"longitude":55.39789962768555,"country":"AE","region":"SH"},"likes":1,"responses":100}
{"name":"Karter Petty","date":"2019-05-02T20:16:13.931629-07:00","comment":"I hate camping","location":{"latitude":48.46896743774414,"longitude":-123.33023071289062,"country":"CA","region":"BC"},"likes":118,"responses":4}
{"name":"Madeline Walter","date":"2020-01-05T20:16:13.931629-08:00","comment":"I hate hiking","location":{"latitude":49.287567138671875,"longitude":-123.11988067626953,"country":"CA","region":"BC"},"likes":9,"responses":2}
{"name":"Weston Leonard","date":"2019-04-01T20:16:13.931629-07:00","comment":"I like tacos","location":{"latitude":53.53729248046875,"longitude":-113.61666107177734,"country":"CA","region":"AB"},"likes":6,"responses":2}
{"name":"Caroline Lee","date":"2019-06-30T20:16:13.931629-07:00","comment":"I hate skiing","location":{"latitude":49.26823043823242,"longitude":-123.1708755493164,"country":"CA","region":"BC"},"likes":2,"responses":24}
{"name":"Finley Bowers","date":"2019-10-31T20:16:13.931629-07:00","comment":"I think I might like tacos","location":{"latitude":49.07620620727539,"longitude":-122.6689453125,"country":"CA","region":"BC"},"likes":5,"responses":1}
{"name":"Chloe Sanchez","date":"2019-06-02T20:16:13.931629-07:00","comment":"I like camping","location":{"latitude":25.199472427368164,"longitude":55.27532958984375,"country":"AE","region":"DU"},"likes":2,"responses":27}
{"name":"Eduardo Bishop","date":"2020-02-26T20:16:13.931629-08:00","comment":"I like hiking","location":{"latitude":49.11996841430664,"longitude":-122.89212799072266,"country":"CA","region":"BC"},"likes":20,"responses":39}
{"name":"Alexander Lindsey","date":"2019-12-22T20:16:13.931629-08:00","comment":"I love long walks on the beach","location":{"latitude":53.60105514526367,"longitude":-113.42273712158203,"country":"CA","region":"AB"},"likes":2,"responses":6}
{"name":"Lia Hatfield","date":"2020-01-17T20:16:13.931629-08:00","comment":"I hate hiking","location":{"latitude":24.159320831298828,"longitude":55.80548858642578,"country":"AE","region":"AZ"},"likes":4,"responses":62}
{"name":"Sydney Foley","date":"2019-07-16T20:16:13.931629-07:00","comment":"Maybe I like camping","location":{"latitude":43.68926239013672,"longitude":-79.4129638671875,"country":"CA","region":"ON"},"likes":3,"responses":2}
{"name":"Arianna Haley","date":"2020-03-04T20:16:13.931629-08:00","comment":"I hate camping","location":{"latitude":49.17239761352539,"longitude":-123.13597869873047,"country":"CA","region":"BC"},"likes":2,"responses":5}
{"name":"Cooper Marshall","date":"2019-08-03T20:16:13.931629-07:00","comment":"I think I might like hiking","location":{"latitude":51.09574890136719,"longitude":-114.14049530029297,"country":"CA","region":"AB"},"likes":13,"responses":4}
{"name":"Ximena Montgomery","date":"2019-06-10T20:16:13.931629-07:00","comment":"Maybe I like hiking","location":{"latitude":51.04195022583008,"longitude":-114.13941955566406,"country":"CA","region":"AB"},"likes":69,"responses":8}
{"name":"Elizabeth Bartlett","date":"2019-03-17T20:16:13.931629-07:00","comment":"I like hiking","location":{"latitude":50.034095764160156,"longitude":-125.25029754638672,"country":"CA","region":"BC"},"likes":86,"responses":12}
{"name":"Aiden Costa","date":"2019-10-19T20:16:13.931629-07:00","comment":"Maybe I like ice cream","location":{"latitude":43.84494400024414,"longitude":-79.47059631347656,"country":"CA","region":"ON"},"likes":5,"responses":51}
{"name":"Kenneth Coffey","date":"2019-03-09T20:16:13.931629-08:00","comment":"I hate hiking","location":{"latitude":49.25791931152344,"longitude":-123.168212890625,"country":"CA","region":"BC"},"likes":23,"responses":102}
{"name":"Serenity Mclaughlin","date":"2020-01-13T20:16:13.931629-08:00","comment":"I like tacos","location":{"latitude":54.3149299621582,"longitude":-130.32330322265625,"country":"CA","region":"BC"},"likes":79,"responses":87}
{"name":"Ricardo Franklin","date":"2019-06-26T20:16:13.931629-07:00","comment":"I hate long walks on the beach","location":{"latitude":-34.58806228637695,"longitude":-58.40978240966797,"country":"AR","region":"C"},"likes":4,"responses":2}
{"name":"Arjun Hogan","date":"2019-06-08T20:16:13.931629-07:00","comment":"I hate hiking","location":{"latitude":50.71703338623047,"longitude":-113.98033905029297,"country":"CA","region":"AB"},"likes":104,"responses":95}
{"name":"Hunter Roberts","date":"2020-01-22T20:16:13.931629-08:00","comment":"I hate skiing","location":{"latitude":51.06039810180664,"longitude":-114.06289672851562,"country":"CA","region":"AB"},"likes":77,"responses":11}
{"name":"Grayson Terrell","date":"2019-11-29T20:16:13.931629-08:00","comment":"Maybe I like camping","location":{"latitude":53.54115295410156,"longitude":-113.493408203125,"country":"CA","region":"AB"},"likes":4,"responses":15}
{"name":"Layla Hodge","date":"2019-04-30T20:16:13.931629-07:00","comment":"I like long walks on the beach","location":{"latitude":44.34681701660156,"longitude":-79.70338439941406,"country":"CA","region":"ON"},"likes":34,"responses":2}
{"name":"Emily Chaney","date":"2019-11-28T20:16:13.931629-08:00","comment":"I like long walks on the beach","location":{"latitude":44.28153991699219,"longitude":-78.34574127197266,"country":"CA","region":"ON"},"likes":15,"responses":35}
{"name":"Harper Henderson","date":"2019-09-15T20:16:13.931629-07:00","comment":"I hate hiking","location":{"latitude":45.34550476074219,"longitude":-80.00667572021484,"country":"CA","region":"ON"},"likes":17,"responses":1}
{"name":"Martin Baxter","date":"2019-07-03T20:16:13.931629-07:00","comment":"I think I might like long walks on the beach","location":{"latitude":48.43347930908203,"longitude":-89.22491455078125,"country":"CA","region":"ON"},"likes":1,"responses":53}
{"name":"Xavier Carey","date":"2019-11-11T20:16:13.931629-08:00","comment":"I hate ice cream","location":{"latitude":49.282047271728516,"longitude":-123.1185073852539,"country":"CA","region":"BC"},"likes":7,"responses":28}
{"name":"Henry Wade","date":"2019-11-20T20:16:13.931629-08:00","comment":"I really hate camping","location":{"latitude":55.74873352050781,"longitude":-120.22449493408203,"country":"CA","region":"BC"},"likes":14,"responses":89}
{"name":"Juliet Galloway","date":"2019-12-04T20:16:13.931629-08:00","comment":"I hate tacos","location":{"latitude":25.254119873046875,"longitude":55.331321716308594,"country":"AE","region":"DU"},"likes":49,"responses":23}
{"name":"Maximus Brandt","date":"2019-04-26T20:16:13.931629-07:00","comment":"I think I might like camping","location":{"latitude":43.65346145629883,"longitude":-79.42643737792969,"country":"CA","region":"ON"},"likes":46,"responses":2}
{"name":"Melody Pierce","date":"2019-11-21T20:16:13.931629-08:00","comment":"I love camping","location":{"latitude":43.82929611206055,"longitude":-79.5368881225586,"country":"CA","region":"ON"},"likes":4,"responses":116}
{"name":"Allie Wade","date":"2019-11-06T20:16:13.931629-08:00","comment":"I really hate skiing","location":{"latitude":49.19322204589844,"longitude":-123.18128204345703,"country":"CA","region":"BC"},"likes":3,"responses":28}
{"name":"Elizabeth Gates","date":"2019-09-21T20:16:13.931629-07:00","comment":"I really hate skiing","location":{"latitude":49.313438415527344,"longitude":-123.07733154296875,"country":"CA","region":"BC"},"likes":4,"responses":14}
{"name":"Clayton Walker","date":"2019-12-26T20:16:13.931629-08:00","comment":"I hate long walks on the beach","location":{"latitude":43.64877700805664,"longitude":-79.37252044677734,"country":"CA","region":"ON"},"likes":8,"responses":4}
{"name":"Cesar Lee","date":"2020-02-14T20:16:13.931629-08:00","comment":"I like tacos","location":{"latitude":53.185638427734375,"longitude":-105.76273345947266,"country":"CA","region":"SK"},"likes":51,"responses":34}
{"name":"Cameron Nunez","date":"2019-11-19T20:16:13.931629-08:00","comment":"I like skiing","location":{"latitude":50.66520309448242,"longitude":-120.35249328613281,"country":"CA","region":"BC"},"likes":8,"responses":1}
{"name":"Emilio Hendrix","date":"2019-10-18T20:16:13.931629-07:00","comment":"Maybe I like skiing","location":{"latitude":51.12419891357422,"longitude":-114.24691772460938,"country":"CA","region":"AB"},"likes":9,"responses":6}
{"name":"Emmanuel Schneider","date":"2020-01-16T20:16:13.931629-08:00","comment":"I like ice cream","location":{"latitude":45.45740509033203,"longitude":-75.49757385253906,"country":"CA","region":"ON"},"likes":119,"responses":51}
{"name":"Maggie Mercado","date":"2020-01-28T20:16:13.931629-08:00","comment":"I hate hiking","location":{"latitude":49.32156753540039,"longitude":-123.0989990234375,"country":"CA","region":"BC"},